var companies = {"type":"FeatureCollection","features":[{"type":"Feature","properties":{"CADPARCOMP":"5G Energy Ltd.","CADPROVHQ":"Ontario","TECHSEC":"Energy and Clean Technology","CITY":"Chennai","COUNTRY":"India","ADDRESS":"TS 140, Block 2 & 9, Fourth Floor\nElnet Software City, Rajiv Gandhi Salai\nTaramani, Chennai 600 113","MULTICOUNT":"FALSE"},"geometry":{"type":"Point","coordinates":[80.2500696,12.989273]}},{"type":"Feature","properties":{"CADPARCOMP":"5Nplus","CADPROVHQ":"Quebec","TECHSEC":"Energy and Clean Technology","CITY":"Shangyu","COUNTRY":"China","ADDRESS":"No.19 Weiyi East Road\nHangzhou Bay Shangyu Industrial Zone\nShangyu, Zhejiang\n312300, China","MULTICOUNT":"TRUE"},"geometry":{"type":"Point","coordinates":[120.877042,30.0129655]}},{"type":"Feature","properties":{"CADPARCOMP":"5Nplus","CADPROVHQ":"Quebec","TECHSEC":"Energy and Clean Technology","CITY":"Hong Kong","COUNTRY":"Hong Kong","ADDRESS":"8/F to 14/F New York House\n60 Connaught Road Central\nCentral District, Hong Kong\nChina","MULTICOUNT":"TRUE"},"geometry":{"type":"Point","coordinates":[114.1556749,22.2852848]}},{"type":"Feature","properties":{"CADPARCOMP":"5Nplus","CADPROVHQ":"Quebec","TECHSEC":"Energy and Clean Technology","CITY":"Vientiane","COUNTRY":"Laos","ADDRESS":"Dongphonehae Village\nHatsaifong District\nVientiane Capital City\nLao P.D.R","MULTICOUNT":"TRUE"},"geometry":{"type":"Point","coordinates":[102.7436417,17.8906858]}},{"type":"Feature","properties":{"CADPARCOMP":"5Nplus","CADPROVHQ":"Quebec","TECHSEC":"Energy and Clean Technology","CITY":"Kulim","COUNTRY":"Malaysia","ADDRESS":"Lot 25, Jalan Hi-Tech 4\nKulim Hi-tech Park-Phase 1\nKedah Duralaman\n0900 MY","MULTICOUNT":"TRUE"},"geometry":{"type":"Point","coordinates":[100.3662469,6.1250844]}},{"type":"Feature","properties":{"CADPARCOMP":"ABC Group","CADPROVHQ":"Ontario","TECHSEC":"Advanced Manufacturing","CITY":"Ningbo","COUNTRY":"China","ADDRESS":"No. 525 Changxing Road, Jiangbei district, Ningbo. China","MULTICOUNT":"TRUE"},"geometry":{"type":"Point","coordinates":[121.4745442,29.9442568]}},{"type":"Feature","properties":{"CADPARCOMP":"ABC Group","CADPROVHQ":"Ontario","TECHSEC":"Advanced Manufacturing","CITY":"Yokohama","COUNTRY":"Japan","ADDRESS":"Shin-Yokohama Center Building No. 2, 10F 3-19-5, Shin-Yokohama, Kohoku-ku Yokohama, Kanagawa 222-0033, Japan","MULTICOUNT":"TRUE"},"geometry":{"type":"Point","coordinates":[139.6133356,35.5086887]}},{"type":"Feature","properties":{"CADPARCOMP":"Abel Industries Canada Ltd.","CADPROVHQ":"British Columbia","TECHSEC":"Advanced Manufacturing","CITY":"Beijing","COUNTRY":"China","ADDRESS":"Rm 1402, 2A Building, ShangAo century center, No.87, Jiancaicheng West Rd.,Haidian Dist., Beijing \nBeijing China, 100096","MULTICOUNT":"FALSE"},"geometry":{"type":"Point","coordinates":[116.330458,40.056686]}},{"type":"Feature","properties":{"CADPARCOMP":"Abel Industries Canada Ltd.","CADPROVHQ":"British Columbia","TECHSEC":"Advanced Manufacturing","CITY":"Hyderabad","COUNTRY":"India","ADDRESS":"B-1, Room No. 2 & 3, 3rd Floor,\nY.S.R. Complex,Phase-II, T.I.E. Balanagar,\nHyderabad 500 037 A.P.,\nIndia","MULTICOUNT":"FALSE"},"geometry":{"type":"Point","coordinates":[78.498251,17.291978]}},{"type":"Feature","properties":{"CADPARCOMP":"Abel Industries Canada Ltd.","CADPROVHQ":"British Columbia","TECHSEC":"Advanced Manufacturing","CITY":"Wonju","COUNTRY":"South Korea","ADDRESS":"#604 J and C suppllies\n33 Pyeongwon-ro, Wonju-si\nGangwon-do\nKorea","MULTICOUNT":"FALSE"},"geometry":{"type":"Point","coordinates":[127.95216,37.3492668]}},{"type":"Feature","properties":{"CADPARCOMP":"Abel Industries Canada Ltd.","CADPROVHQ":"British Columbia","TECHSEC":"Advanced Manufacturing","CITY":"New Taipei City","COUNTRY":"Taiwan","ADDRESS":"14F., No. 700, Zhongzheng Rd. Zhonghe District\nNew Taipei City\n235 Taiwan","MULTICOUNT":"FALSE"},"geometry":{"type":"Point","coordinates":[121.4859592,24.99671]}},{"type":"Feature","properties":{"CADPARCOMP":"Abel Industries Canada Ltd.","CADPROVHQ":"British Columbia","TECHSEC":"Advanced Manufacturing","CITY":"New Taipei City","COUNTRY":"Taiwan","ADDRESS":"16F.-2, No.77, Sec. 1, Xintai 5th Rd., Xizhi Dist.,\nNew Taipei City 221, Taiwan (R.O.C.)","MULTICOUNT":"FALSE"},"geometry":{"type":"Point","coordinates":[121.684509,25.069128]}},{"type":"Feature","properties":{"CADPARCOMP":"Abel Industries Canada Ltd.","CADPROVHQ":"British Columbia","TECHSEC":"Advanced Manufacturing","CITY":"Nonthaburi ","COUNTRY":"Thailand","ADDRESS":"C.E. Instruments (Thailand) Co., Ltd.\n68/876 Moo 8 Rattanathibet Rd\nBangkrasor, Muang Nonthaburi\nNonthaburi 11000, Thailand","MULTICOUNT":"FALSE"},"geometry":{"type":"Point","coordinates":[100.4998657,13.8654104]}},{"type":"Feature","properties":{"CADPARCOMP":"Absolute Imaging Inc.","CADPROVHQ":"Alberta","TECHSEC":"Software","CITY":"Noida","COUNTRY":"India","ADDRESS":"3rd Floor, Office No. 9A\nTower B of Stellar IT Park\nPlot No C-25, Sector 62\nNoida, India","MULTICOUNT":"FALSE"},"geometry":{"type":"Point","coordinates":[77.3611549,28.6197948]}},{"type":"Feature","properties":{"CADPARCOMP":"Absolute Software","CADPROVHQ":"British Columbia","TECHSEC":"Software","CITY":"Ho Chi Minh City","COUNTRY":"Vietnam","ADDRESS":"Absolute Software Corporation\n3F - 46 Bach Dang\nTan Binh District\nHo Chi Minh City","MULTICOUNT":"TRUE"},"geometry":{"type":"Point","coordinates":[106.6716019,10.81424]}},{"type":"Feature","properties":{"CADPARCOMP":"Accedian Networks","CADPROVHQ":"Quebec","TECHSEC":"Mobile, Web, and Cloud Integration","CITY":"Tokyo","COUNTRY":"Japan","ADDRESS":"1 -1-6 Yaesu\n Chūō-ku, Tōkyō-to 103-0028\n Japan","MULTICOUNT":"FALSE"},"geometry":{"type":"Point","coordinates":[139.7722,35.68413]}},{"type":"Feature","properties":{"CADPARCOMP":"Accedian Networks","CADPROVHQ":"Quebec","TECHSEC":"Mobile, Web, and Cloud Integration","CITY":"Seoul","COUNTRY":"South Korea","ADDRESS":"SK T-Tower, 65, Eulji-ro, Jung-gu, Seoul, 04539, Korea","MULTICOUNT":"FALSE"},"geometry":{"type":"Point","coordinates":[126.9850799,37.5664516]}},{"type":"Feature","properties":{"CADPARCOMP":"Acculogic","CADPROVHQ":"Ontario","TECHSEC":"Electronics and Peripherals","CITY":"Shenzhen","COUNTRY":"China","ADDRESS":"Landrex Electronic (Shenzhen) Co., Ltd.\n2F,Bldg. A14 Phase 2, District 3\nFuqiao Industrial Park\nFuyong,Shenzhen, Guangdong","MULTICOUNT":"TRUE"},"geometry":{"type":"Point","coordinates":[113.823131,22.671042]}},{"type":"Feature","properties":{"CADPARCOMP":"Acculogic","CADPROVHQ":"Ontario","TECHSEC":"Electronics and Peripherals","CITY":"Kunshan","COUNTRY":"China","ADDRESS":"Landrex Technologies (Kunshan) Co., Ltd.\nNo.1,LiHuang Development, Hengshan Road\nZhongHuaYuan, Kunshan, Jiangsu","MULTICOUNT":"TRUE"},"geometry":{"type":"Point","coordinates":[120.9620055,31.3588265]}},{"type":"Feature","properties":{"CADPARCOMP":"Acculogic","CADPROVHQ":"Ontario","TECHSEC":"Electronics and Peripherals","CITY":"Hong Kong","COUNTRY":"Hong Kong","ADDRESS":"Flat B, 6/F, Teda Building 87 Wing Lok Street Sheing Wan, Hong Kong","MULTICOUNT":"TRUE"},"geometry":{"type":"Point","coordinates":[114.109497,22.396428]}},{"type":"Feature","properties":{"CADPARCOMP":"Acculogic","CADPROVHQ":"Ontario","TECHSEC":"Electronics and Peripherals","CITY":"Tokyo","COUNTRY":"Japan","ADDRESS":"Acculogic Kabushiki Kaisha, 2-7-10 Amanuma, Suginami, Tokyo","MULTICOUNT":"TRUE"},"geometry":{"type":"Point","coordinates":[139.6201752,35.7072315]}},{"type":"Feature","properties":{"CADPARCOMP":"Acculogic","CADPROVHQ":"Ontario","TECHSEC":"Electronics and Peripherals","CITY":"Carmona Cavite","COUNTRY":"Philippines","ADDRESS":"Unit 2 Paseo De Carmona Complex","MULTICOUNT":"TRUE"},"geometry":{"type":"Point","coordinates":[121.0167111,14.5754068]}},{"type":"Feature","properties":{"CADPARCOMP":"Acculogic","CADPROVHQ":"Ontario","TECHSEC":"Electronics and Peripherals","CITY":"Singapore","COUNTRY":"Singapore","ADDRESS":"Kestronics(S) Pts Ltd\nBlk 1090, Lower Delta, #07-03\nTiong Bahru Industrial Estate, Singapore 169201,","MULTICOUNT":"TRUE"},"geometry":{"type":"Point","coordinates":[103.8257514,1.2890025]}},{"type":"Feature","properties":{"CADPARCOMP":"Acculogic","CADPROVHQ":"Ontario","TECHSEC":"Electronics and Peripherals","CITY":"Taipei","COUNTRY":"Taiwan","ADDRESS":"Landrex Technologies Co., Ltd.\nNo.232,Yongchang St., Yingge Town,\nTaipei County 239, Taiwan (R.O.C)","MULTICOUNT":"TRUE"},"geometry":{"type":"Point","coordinates":[121.4449508,25.0582921]}},{"type":"Feature","properties":{"CADPARCOMP":"Accurpress International Sales Ltd.","CADPROVHQ":"British Columbia","TECHSEC":"Advanced Manufacturing","CITY":"Ahmedabad","COUNTRY":"India","ADDRESS":"307, Tryksha Desire, Chandkheda,, Ahmedabad, Gujarat 382424, India","MULTICOUNT":"FALSE"},"geometry":{"type":"Point","coordinates":[72.5603216,23.1195018]}},{"type":"Feature","properties":{"CADPARCOMP":"ACL Services Ltd.","CADPROVHQ":"British Columbia","TECHSEC":"Software","CITY":"Guangzhou","COUNTRY":"China","ADDRESS":"#374 Beijing Road, Yuxiu District, Guangzhou, China","MULTICOUNT":"FALSE"},"geometry":{"type":"Point","coordinates":[113.268934,23.127356]}},{"type":"Feature","properties":{"CADPARCOMP":"ACL Services Ltd.","CADPROVHQ":"British Columbia","TECHSEC":"Software","CITY":"Beijing","COUNTRY":"China","ADDRESS":"Floor 19, Fortune Financial Center, No.5 Dongsanhuan Zhong Road, Chaoyang District, Beijing, P.R.C. 100020","MULTICOUNT":"FALSE"},"geometry":{"type":"Point","coordinates":[116.4530133,39.9142836]}},{"type":"Feature","properties":{"CADPARCOMP":"ACL Services Ltd.","CADPROVHQ":"British Columbia","TECHSEC":"Software","CITY":"Beijing","COUNTRY":"China","ADDRESS":"C203, Lufthansa Office Building,\nNo.50, Liangmaqiao Road, Chaoyang District,\nBeijing, 100125, P.R. China","MULTICOUNT":"FALSE"},"geometry":{"type":"Point","coordinates":[116.4683885,39.9478453]}},{"type":"Feature","properties":{"CADPARCOMP":"ACL Services Ltd.","CADPROVHQ":"British Columbia","TECHSEC":"Software","CITY":"Shanghai","COUNTRY":"China","ADDRESS":"4/F 83 Fumin Road, Shanghai 200040","MULTICOUNT":"FALSE"},"geometry":{"type":"Point","coordinates":[121.450713,31.220658]}},{"type":"Feature","properties":{"CADPARCOMP":"ACL Services Ltd.","CADPROVHQ":"British Columbia","TECHSEC":"Software","CITY":"Hong Kong","COUNTRY":"Hong Kong","ADDRESS":"Flat/Rm 1501 15/F Millennium City 5\n 418 Kwun Tong Road\n Kowloon, Hong Kong","MULTICOUNT":"FALSE"},"geometry":{"type":"Point","coordinates":[114.2245933,22.312564]}},{"type":"Feature","properties":{"CADPARCOMP":"ACL Services Ltd.","CADPROVHQ":"British Columbia","TECHSEC":"Software","CITY":"Mumbai","COUNTRY":"India","ADDRESS":"Vashi InfoTech Park, Sector 30A, 6th Floor Office 605, Vashi, Mumbai – 400 704","MULTICOUNT":"FALSE"},"geometry":{"type":"Point","coordinates":[72.9952112,19.0649386]}},{"type":"Feature","properties":{"CADPARCOMP":"ACL Services Ltd.","CADPROVHQ":"British Columbia","TECHSEC":"Software","CITY":"New Delhi","COUNTRY":"India","ADDRESS":"M-31A, M-Block Market,Greater Kailash – II,New Delhi-110048, India","MULTICOUNT":"FALSE"},"geometry":{"type":"Point","coordinates":[77.2424948,28.5695917]}},{"type":"Feature","properties":{"CADPARCOMP":"ACL Services Ltd.","CADPROVHQ":"British Columbia","TECHSEC":"Software","CITY":"Chennai","COUNTRY":"India","ADDRESS":"5C, Kences Towers, No.1, Ramakrishna Street, Off North Usman Road, T. Nagar, Chennai, India 600 017","MULTICOUNT":"FALSE"},"geometry":{"type":"Point","coordinates":[80.2336924,13.0405026]}},{"type":"Feature","properties":{"CADPARCOMP":"ACL Services Ltd.","CADPROVHQ":"British Columbia","TECHSEC":"Software","CITY":"Jakarta","COUNTRY":"Indonesia","ADDRESS":"Grand Slipi Tower 23rd Fl., Jl. Letjend S.Parman kav.22-24, Jakarta Barat 11480, Indonesia","MULTICOUNT":"FALSE"},"geometry":{"type":"Point","coordinates":[106.7985219,-6.200765]}},{"type":"Feature","properties":{"CADPARCOMP":"ACL Services Ltd.","CADPROVHQ":"British Columbia","TECHSEC":"Software","CITY":"Jakarta","COUNTRY":"Indonesia","ADDRESS":"Jl. Kapten Tendean No.1 (gedung EX Reebook) 3rd Floor Jakarta selatan, Indonesia","MULTICOUNT":"FALSE"},"geometry":{"type":"Point","coordinates":[106.8183898,-6.2090499]}},{"type":"Feature","properties":{"CADPARCOMP":"ACL Services Ltd.","CADPROVHQ":"British Columbia","TECHSEC":"Software","CITY":"Jakarta","COUNTRY":"Indonesia","ADDRESS":"Mayapada Tower, 11th Floor\nJl.Jend. Sudirman Kav 28\nJakarta 12920 Indonesia","MULTICOUNT":"FALSE"},"geometry":{"type":"Point","coordinates":[106.8200889,-6.2137622]}},{"type":"Feature","properties":{"CADPARCOMP":"ACL Services Ltd.","CADPROVHQ":"British Columbia","TECHSEC":"Software","CITY":"Tokyo","COUNTRY":"Japan","ADDRESS":"Hulic Kandabashi Building, 3F, 1-21-1 Kanda Nishikicho, Chiyoda-ku, Tokyo, Japan 101-0054","MULTICOUNT":"FALSE"},"geometry":{"type":"Point","coordinates":[139.7623475,35.6911256]}},{"type":"Feature","properties":{"CADPARCOMP":"ACL Services Ltd.","CADPROVHQ":"British Columbia","TECHSEC":"Software","CITY":"Tokyo","COUNTRY":"Japan","ADDRESS":"Ote Center Building, 1-1-3, Otemachi Chiyoda-ku, Tokyo Japan 100-0004","MULTICOUNT":"FALSE"},"geometry":{"type":"Point","coordinates":[139.7684556,35.6858986]}},{"type":"Feature","properties":{"CADPARCOMP":"ACL Services Ltd.","CADPROVHQ":"British Columbia","TECHSEC":"Software","CITY":"Selangor","COUNTRY":"Malaysia","ADDRESS":"29-2-29, The Core Damansara, Jalan Teknologi 3/6e, Taman Sains Selangor 1, 47810 Petaling Jaya,Selangor Darul Ehsan, Malaysia","MULTICOUNT":"FALSE"},"geometry":{"type":"Point","coordinates":[101.56754,3.1552684]}},{"type":"Feature","properties":{"CADPARCOMP":"ACL Services Ltd.","CADPROVHQ":"British Columbia","TECHSEC":"Software","CITY":"Kuala Lumpur","COUNTRY":"Malaysia","ADDRESS":"Suite 8-1 & 8-2, Level 8, Menara CIMB, Jalan Stesen Sentral 2,\n50470 Kuala Lumpur, Malaysia","MULTICOUNT":"FALSE"},"geometry":{"type":"Point","coordinates":[101.6882493,3.1364855]}},{"type":"Feature","properties":{"CADPARCOMP":"ACL Services Ltd.","CADPROVHQ":"British Columbia","TECHSEC":"Software","CITY":"Manila","COUNTRY":"Philippines","ADDRESS":"28th Floor, Tower 2, The Enterprise Center,\n6766 Ayala Ave cor Paseo De Roxas,\nMakati City 1226 Philippines","MULTICOUNT":"FALSE"},"geometry":{"type":"Point","coordinates":[121.774017,12.879721]}},{"type":"Feature","properties":{"CADPARCOMP":"ACL Services Ltd.","CADPROVHQ":"British Columbia","TECHSEC":"Software","CITY":"Singapore","COUNTRY":"Singapore","ADDRESS":"The JTC Summit\n8 Jurong Town Hall Road #28-05/06\nSingapore 609434","MULTICOUNT":"FALSE"},"geometry":{"type":"Point","coordinates":[103.741504,1.331037]}},{"type":"Feature","properties":{"CADPARCOMP":"ACL Services Ltd.","CADPROVHQ":"British Columbia","TECHSEC":"Software","CITY":"Anyang","COUNTRY":"South Korea","ADDRESS":"1903-ho. Hyundai I-SPACE, Gwanyang-dong, Dongan-ku, Anyang-si Gyeonggi-do, South Korea 431-816","MULTICOUNT":"FALSE"},"geometry":{"type":"Point","coordinates":[126.8860277,37.3912192]}},{"type":"Feature","properties":{"CADPARCOMP":"ACL Services Ltd.","CADPROVHQ":"British Columbia","TECHSEC":"Software","CITY":"Seoul","COUNTRY":"South Korea","ADDRESS":"#402, Jungwon Bidg., 23, Gukhoe-daero 68-gil, Yeongdeungpo-gu, Seoul, Korea 150-871","MULTICOUNT":"FALSE"},"geometry":{"type":"Point","coordinates":[126.8962283,37.5263715]}},{"type":"Feature","properties":{"CADPARCOMP":"ACL Services Ltd.","CADPROVHQ":"British Columbia","TECHSEC":"Software","CITY":"Bangkok","COUNTRY":"Thailand","ADDRESS":"177/1 15th floor Unit5 Bangkok Union Insurance, Surawong Rd., Suriyawongse, Bangrak, Bangkok 10500","MULTICOUNT":"FALSE"},"geometry":{"type":"Point","coordinates":[100.5267991,13.7262395]}},{"type":"Feature","properties":{"CADPARCOMP":"ACL Services Ltd.","CADPROVHQ":"British Columbia","TECHSEC":"Software","CITY":"Bangkok","COUNTRY":"Thailand","ADDRESS":"2186/200 1st Floor Baan Sukhothai Building 6, Soi RamVilla (Ramkamheang 30/1), Ramkamhaeng Road, Huamark, Bangkapi, Bangkok, Thailand 10240","MULTICOUNT":"FALSE"},"geometry":{"type":"Point","coordinates":[100.6759772,13.7626581]}},{"type":"Feature","properties":{"CADPARCOMP":"Acme Engineering Products Ltd.","CADPROVHQ":"Quebec","TECHSEC":"Advanced Manufacturing","CITY":"Shaoxing","COUNTRY":"China","ADDRESS":"Zhangzhen Industrial Park, \nShangyu, Shaoxing, \nZhejiang \n312363","MULTICOUNT":"TRUE"},"geometry":{"type":"Point","coordinates":[120.858807,29.809617]}},{"type":"Feature","properties":{"CADPARCOMP":"Acme Engineering Products Ltd.","CADPROVHQ":"Quebec","TECHSEC":"Advanced Manufacturing","CITY":"Mumbai","COUNTRY":"India","ADDRESS":"Plot # 78, Additional MIDC, Anand Nagar, Ambernath East, Maharashtra. India, Pin-421506","MULTICOUNT":"TRUE"},"geometry":{"type":"Point","coordinates":[73.1936668,19.1896773]}},{"type":"Feature","properties":{"CADPARCOMP":"Active Exhaust Corp","CADPROVHQ":"Ontario","TECHSEC":"Advanced Manufacturing","CITY":"Shanghai","COUNTRY":"China","ADDRESS":"No.1099, Yunhe Road (N), Nanqiao Town, Fengxian District, Shanghai, China","MULTICOUNT":""},"geometry":{"type":"Point","coordinates":[121.7514119,30.9257378]}},{"type":"Feature","properties":{"CADPARCOMP":"Advanced Geophysical Operations & Services Inc. (AGCOS)","CADPROVHQ":"Ontario","TECHSEC":"Services and Analytics","CITY":"Chennai","COUNTRY":"India","ADDRESS":"19, Sir C.V.Raman Road,\nAlwarpet, Chennai - 600 018, India","MULTICOUNT":"FALSE"},"geometry":{"type":"Point","coordinates":[80.2570547,13.034882]}},{"type":"Feature","properties":{"CADPARCOMP":"Affinity Biologicals","CADPROVHQ":"Ontario","TECHSEC":"Life Sciences","CITY":"Beijing","COUNTRY":"China","ADDRESS":"Rm. 207, Kaicheng Building 1\nQingyuanxili, Qing He\nHaidian District, Beijing – 100192 (China)","MULTICOUNT":"FALSE"},"geometry":{"type":"Point","coordinates":[116.3614073,40.0158776]}},{"type":"Feature","properties":{"CADPARCOMP":"Affinity Biologicals","CADPROVHQ":"Ontario","TECHSEC":"Life Sciences","CITY":"New Delhi","COUNTRY":"India","ADDRESS":"412-B, Jyoti Shikhar, District Centre, Janakpuri New Delhi – 110058. INDIA","MULTICOUNT":"FALSE"},"geometry":{"type":"Point","coordinates":[77.081597,28.628981]}},{"type":"Feature","properties":{"CADPARCOMP":"Affinity Biologicals","CADPROVHQ":"Ontario","TECHSEC":"Life Sciences","CITY":"Tokyo","COUNTRY":"Japan","ADDRESS":"Toyo Ekimae Building\n2-20, Toyo 2-chome\nKoto-Ku, Tokyo 135-0016\nJapan","MULTICOUNT":"FALSE"},"geometry":{"type":"Point","coordinates":[139.8140241,35.666782]}},{"type":"Feature","properties":{"CADPARCOMP":"Affinity Biologicals","CADPROVHQ":"Ontario","TECHSEC":"Life Sciences","CITY":"Singapore","COUNTRY":"Singapore","ADDRESS":"211 Henderson Rd., #13-02\nHenderson Industrial Park\nSingapore, 159552","MULTICOUNT":"FALSE"},"geometry":{"type":"Point","coordinates":[103.8195747,1.2819892]}},{"type":"Feature","properties":{"CADPARCOMP":"Affinity Biologicals","CADPROVHQ":"Ontario","TECHSEC":"Life Sciences","CITY":"Kyunggi-do","COUNTRY":"South Korea","ADDRESS":"Ducksan Bldg 3F,879-11, Jookjeon-Dong\nSuji-ku. Yongin City\nKyunggi-Do\nRepublic of Korea","MULTICOUNT":"FALSE"},"geometry":{"type":"Point","coordinates":[127.1097563,37.3331451]}},{"type":"Feature","properties":{"CADPARCOMP":"Aimia Inc.","CADPROVHQ":"Ontario","TECHSEC":"Services and Analytics","CITY":"Hong Kong","COUNTRY":"Hong Kong","ADDRESS":"Units 3401-2, 34/F AIA Tower\n183 Electric Road, North Point\nHong Kong","MULTICOUNT":"TRUE"},"geometry":{"type":"Point","coordinates":[114.1926,22.28835]}},{"type":"Feature","properties":{"CADPARCOMP":"Aimia Inc.","CADPROVHQ":"Ontario","TECHSEC":"Services and Analytics","CITY":"Mumbai","COUNTRY":"India","ADDRESS":"Ramnord House, Ground Floor\n77 Dr. Annie Besant Road\nWorli, Mumbai – 400 018","MULTICOUNT":"TRUE"},"geometry":{"type":"Point","coordinates":[72.81684,18.99998]}},{"type":"Feature","properties":{"CADPARCOMP":"Aimia Inc.","CADPROVHQ":"Ontario","TECHSEC":"Services and Analytics","CITY":"Jakarta","COUNTRY":"Indonesia","ADDRESS":"Menara Jamsostek, North Building 11th Floor\n Jl. Jenderal Gatot Subroto No. 38\n Jakarta 12710","MULTICOUNT":"TRUE"},"geometry":{"type":"Point","coordinates":[106.8215,-6.233763]}},{"type":"Feature","properties":{"CADPARCOMP":"Aimia Inc.","CADPROVHQ":"Ontario","TECHSEC":"Services and Analytics","CITY":"Tokyo","COUNTRY":"Japan","ADDRESS":"Oak Minami Azabu Building 2F\n3-19-23 Minami Azabu, Minato-ku,\nTokyo 106-0047","MULTICOUNT":"TRUE"},"geometry":{"type":"Point","coordinates":[139.7300369,35.6474589]}},{"type":"Feature","properties":{"CADPARCOMP":"Aimia Inc.","CADPROVHQ":"Ontario","TECHSEC":"Services and Analytics","CITY":"Kuala Lumpur","COUNTRY":"Malaysia","ADDRESS":"Unit 5-5, Level 5\n Wisma UOA II\n 21, Jalan Pinang\n 50450 Kuala Lumpur","MULTICOUNT":"TRUE"},"geometry":{"type":"Point","coordinates":[101.7125,3.152796]}},{"type":"Feature","properties":{"CADPARCOMP":"Aimia Inc.","CADPROVHQ":"Ontario","TECHSEC":"Services and Analytics","CITY":"Singapore","COUNTRY":"Singapore","ADDRESS":"1 HarbourFront Place #18-04 to #18-06\nHarbourFront Tower One\nSingapore 098633","MULTICOUNT":"TRUE"},"geometry":{"type":"Point","coordinates":[103.81915,1.264827]}},{"type":"Feature","properties":{"CADPARCOMP":"Alpha Technologies Ltd.","CADPROVHQ":"British Columbia","TECHSEC":"Telecommunications and Wireless Technology","CITY":"Hong Kong","COUNTRY":"Hong Kong","ADDRESS":"Suite 1903, 191F., Tower 1\n 33 Canton Rd. Tsim Sha Tsui\n China, Hong Kong City,\n Kowloon Hong Kong","MULTICOUNT":"FALSE"},"geometry":{"type":"Point","coordinates":[114.1679,22.30079]}},{"type":"Feature","properties":{"CADPARCOMP":"Altus Group Limited","CADPROVHQ":"Ontario","TECHSEC":"Software","CITY":"Shanghai","COUNTRY":"China","ADDRESS":"Room 1236, 12th Floor, Building A, CCIG International Plaza\n No 331, North Cao Xi Road \n Xuhui District, Shanghai | 200030","MULTICOUNT":"TRUE"},"geometry":{"type":"Point","coordinates":[121.4346,31.19647]}},{"type":"Feature","properties":{"CADPARCOMP":"Altus Group Limited","CADPROVHQ":"Ontario","TECHSEC":"Software","CITY":"Hong Kong","COUNTRY":"Hong Kong","ADDRESS":"Level 43, AIA Tower\n 183 Electric Road \n North Point, Hong Kong |","MULTICOUNT":"TRUE"},"geometry":{"type":"Point","coordinates":[114.1925,22.28838]}},{"type":"Feature","properties":{"CADPARCOMP":"Altus Group Limited","CADPROVHQ":"Ontario","TECHSEC":"Software","CITY":"Singapore","COUNTRY":"Singapore","ADDRESS":"9 Temasek Boulevard #15-03, Suntec Tower Two, Singapore 038989","MULTICOUNT":"TRUE"},"geometry":{"type":"Point","coordinates":[103.8596041,1.2946785]}},{"type":"Feature","properties":{"CADPARCOMP":"Altus Group Limited","CADPROVHQ":"Ontario","TECHSEC":"Software","CITY":"Bangkok","COUNTRY":"Thailand","ADDRESS":"219/63-65 19th Floor, Asoke Towers\n Sukhumvit 21 (Asoke), Klongtoey Nua Wattana\n Bangkok, Bangkok | 101 110","MULTICOUNT":"TRUE"},"geometry":{"type":"Point","coordinates":[100.5667,13.73685]}},{"type":"Feature","properties":{"CADPARCOMP":"Altus Group Limited","CADPROVHQ":"Ontario","TECHSEC":"Software","CITY":"Hanoi","COUNTRY":"Vietnam","ADDRESS":"Level 7, Tran Gia Building, 81 Trần Quốc Toản St, Hoàn Kiếm\nHanoi","MULTICOUNT":"TRUE"},"geometry":{"type":"Point","coordinates":[105.8459111,21.0206295]}},{"type":"Feature","properties":{"CADPARCOMP":"Altus Group Limited","CADPROVHQ":"Ontario","TECHSEC":"Software","CITY":"Ho Chi Minh City","COUNTRY":"Vietnam","ADDRESS":"Level 8, VFC Tower\n 29 Ton Duc Thang Street, District 1\n Hồ Chí Minh City, Hồ Chí Minh","MULTICOUNT":"TRUE"},"geometry":{"type":"Point","coordinates":[106.7004,10.77566]}},{"type":"Feature","properties":{"CADPARCOMP":"AMA Infotech Development Inc.","CADPROVHQ":"Ontario","TECHSEC":"Telecommunications and Wireless Technology","CITY":"Beijing","COUNTRY":"China","ADDRESS":"801 Bright China Chang'an Building 1, 7 Jianguomennei Avenue, Dongcheng, Beijing\n","MULTICOUNT":"FALSE"},"geometry":{"type":"Point","coordinates":[116.430373,39.909523]}},{"type":"Feature","properties":{"CADPARCOMP":"AMP Solar Group Inc.","CADPROVHQ":"Ontario","TECHSEC":"Energy and Clean Technology","CITY":"Hong Kong","COUNTRY":"Hong Kong","ADDRESS":"Level 20, Tower 535\n535 Jaffe Road\nCauseway Bay\nHong Kong","MULTICOUNT":"FALSE"},"geometry":{"type":"Point","coordinates":[114.1839249,22.2813968]}},{"type":"Feature","properties":{"CADPARCOMP":"AMP Solar Group Inc.","CADPROVHQ":"Ontario","TECHSEC":"Energy and Clean Technology","CITY":"New Delhi","COUNTRY":"India","ADDRESS":"309 Third Fl, Rectangle One\nBehind Sheraton Saket\nSaket, New Delhi 110017\nIndia","MULTICOUNT":"FALSE"},"geometry":{"type":"Point","coordinates":[77.2166857,28.5267513]}},{"type":"Feature","properties":{"CADPARCOMP":"AMP Solar Group Inc.","CADPROVHQ":"Ontario","TECHSEC":"Energy and Clean Technology","CITY":"Tokyo","COUNTRY":"Japan","ADDRESS":"Ark Hills South Tower 16F\n1-4-5 Roppongi, Minato-Ku\nTokyo 106-0032\nJapan","MULTICOUNT":"FALSE"},"geometry":{"type":"Point","coordinates":[139.7394165,35.6656056]}},{"type":"Feature","properties":{"CADPARCOMP":"Antibe Therapeutics Inc.","CADPROVHQ":"Ontario","TECHSEC":"Life Sciences","CITY":"Seoul","COUNTRY":"South Korea","ADDRESS":"Gasan Building\n\n85 Seochojungang-ro\n\nSeocho-gu\n\nSeoul, \n\nSouth Korea","MULTICOUNT":"FALSE"},"geometry":{"type":"Point","coordinates":[127.0140388,37.4893448]}},{"type":"Feature","properties":{"CADPARCOMP":"Apotex Inc","CADPROVHQ":"Ontario","TECHSEC":"Life Sciences","CITY":"Hong Kong","COUNTRY":"Hong Kong","ADDRESS":"P.O. Box 35325 Kings Rd.\n Unit 1103B, 11th Floor, Block B,\n Seaview Estate\n 2-8 Watson Road\n North Point, Hong Kong","MULTICOUNT":""},"geometry":{"type":"Point","coordinates":[114.1910307,22.2873828]}},{"type":"Feature","properties":{"CADPARCOMP":"Apotex Inc.","CADPROVHQ":"Ontario","TECHSEC":"Life Sciences","CITY":"Bengaluru","COUNTRY":"India","ADDRESS":"Plot No. 1 & 2, Bommasandra Industrial Area,\n4th Phase, Jigani Link Road,\nBangalore - 560099\nKarnataka, India","MULTICOUNT":"TRUE"},"geometry":{"type":"Point","coordinates":[77.660665,12.810578]}},{"type":"Feature","properties":{"CADPARCOMP":"Aprivacy","CADPROVHQ":"Ontario","TECHSEC":"Electronics and Peripherals","CITY":"Hong Kong","COUNTRY":"Hong Kong","ADDRESS":"Level 9, Core F, Cyberport 3 \n100 Cyberport Road, Hong Kong\n","MULTICOUNT":"FALSE"},"geometry":{"type":"Point","coordinates":[114.1286244,22.2608312]}},{"type":"Feature","properties":{"CADPARCOMP":"Aptus Systems Inc.","CADPROVHQ":"British Columbia","TECHSEC":"Electronics and Peripherals","CITY":"Guangzhou","COUNTRY":"China","ADDRESS":"No. 171, A11 2/F\n Nan Dui He Road\n Guangzhou Road South, China","MULTICOUNT":"FALSE"},"geometry":{"type":"Point","coordinates":[113.252194,23.10429]}},{"type":"Feature","properties":{"CADPARCOMP":"Aptus Systems Inc.","CADPROVHQ":"British Columbia","TECHSEC":"Electronics and Peripherals","CITY":"Hong Kong","COUNTRY":"Hong Kong","ADDRESS":"G/F, 71 Yu Chau Street\nSham Shui Po\nKowloon, Hong Kong","MULTICOUNT":"FALSE"},"geometry":{"type":"Point","coordinates":[114.165386,22.326708]}},{"type":"Feature","properties":{"CADPARCOMP":"Aquilini Renewable Energy, Inc.","CADPROVHQ":"British Columbia","TECHSEC":"Energy and Clean Technology","CITY":"Lapu-Lapu City","COUNTRY":"Philippines","ADDRESS":"Cebu Light Industrial Park in Barangay Basak, Lapu-Lapu City\n\n","MULTICOUNT":"FALSE"},"geometry":{"type":"Point","coordinates":[123.960282,10.287973]}},{"type":"Feature","properties":{"CADPARCOMP":"Arbutus Software","CADPROVHQ":"British Columbia","TECHSEC":"Software","CITY":"Mumbai","COUNTRY":"India","ADDRESS":"A-101, Kailash Industrial Complex,\nNew Hiranandani Road, Park site\nVikhroli (West), Mumbai - 400 079\nIndia","MULTICOUNT":"FALSE"},"geometry":{"type":"Point","coordinates":[72.9181424,19.1131567]}},{"type":"Feature","properties":{"CADPARCOMP":"Arbutus Software","CADPROVHQ":"British Columbia","TECHSEC":"Software","CITY":"Singapore","COUNTRY":"Singapore","ADDRESS":"201 Henderson Road\n#08-28, Apex @ Henderson\nSingapore - 159545","MULTICOUNT":"FALSE"},"geometry":{"type":"Point","coordinates":[103.820457,1.2825089]}},{"type":"Feature","properties":{"CADPARCOMP":"Armstrong Fluid Technology","CADPROVHQ":"Ontario","TECHSEC":"Advanced Manufacturing","CITY":"Shanghai","COUNTRY":"China","ADDRESS":"Unit 903, 888 North Sichuan Rd \nHongkou District, Shanghai - China \n200085","MULTICOUNT":"TRUE"},"geometry":{"type":"Point","coordinates":[121.485088,31.249656]}},{"type":"Feature","properties":{"CADPARCOMP":"Armstrong Fluid Technology","CADPROVHQ":"Ontario","TECHSEC":"Advanced Manufacturing","CITY":"Bengaluru","COUNTRY":"India","ADDRESS":"#59, First Floor, 3rd Main\nMargosa Road, Malleswaram\nBangalore - India","MULTICOUNT":"TRUE"},"geometry":{"type":"Point","coordinates":[77.5694282,12.9993445]}},{"type":"Feature","properties":{"CADPARCOMP":"Array Marketing Group, Inc.","CADPROVHQ":"Ontario","TECHSEC":"Advanced Manufacturing","CITY":"Shenzhen","COUNTRY":"China","ADDRESS":"RM2607,West 26/F,Great China Int’l Exchange Sq.\nJintian Rd.S., Futian District\nShenzhen,P.R.China\n518048, China","MULTICOUNT":"FALSE"},"geometry":{"type":"Point","coordinates":[114.0633031,22.5334126]}},{"type":"Feature","properties":{"CADPARCOMP":"AscendantFX Capital Inc.","CADPROVHQ":"Ontario","TECHSEC":"Services and Analytics","CITY":"Hyderabad","COUNTRY":"India","ADDRESS":"3rd Fl., Cyber Heights, Opp Cyber Towers\n\nMadhapur, Hyderabad, 500081, Telangania\n\nIndia","MULTICOUNT":"FALSE"},"geometry":{"type":"Point","coordinates":[78.381052,17.4503327]}},{"type":"Feature","properties":{"CADPARCOMP":"Atomic Energy of Canada Limited","CADPROVHQ":"Ontario","TECHSEC":"Energy and Clean technology","CITY":"Beijing","COUNTRY":"China","ADDRESS":"104B AVIC International Plaza, No.18, Beichen East Road, Chaoyang District, Beijing, China","MULTICOUNT":""},"geometry":{"type":"Point","coordinates":[116.400181,39.992708]}},{"type":"Feature","properties":{"CADPARCOMP":"ATS Automation Tooling Systems Inc.","CADPROVHQ":"Ontario","TECHSEC":"Advanced Manufacturing","CITY":"Tianjin","COUNTRY":"China","ADDRESS":"NO.12-2, XEDA Century Road\n Xiqing Economic Development Area\n Tianjin City, P.R. China\n 300385","MULTICOUNT":"FALSE"},"geometry":{"type":"Point","coordinates":[117.2404,39.01977]}},{"type":"Feature","properties":{"CADPARCOMP":"ATS Automation Tooling Systems Inc.","CADPROVHQ":"Ontario","TECHSEC":"Advanced Manufacturing","CITY":"Pune","COUNTRY":"India","ADDRESS":"IndoSpace Rohan Industrial Park, Unit B, Building # 4,\n Behind L’Oreal Factory, GAT: 428, Village Mahalunge,\n Off: Chakan Talegaon Road, Chakan, Tal: Khed, Dist: Pune,\n Pin 410 501, Maharashtra, INDIA","MULTICOUNT":"FALSE"},"geometry":{"type":"Point","coordinates":[75.71389,19.75148]}},{"type":"Feature","properties":{"CADPARCOMP":"ATS Automation Tooling Systems Inc.","CADPROVHQ":"Ontario","TECHSEC":"Advanced Manufacturing","CITY":"Bukit Mertajam","COUNTRY":"Malaysia","ADDRESS":"Plot 221, Lorong Perindustrian Bukit Minyak 11\n Mukim 13, Kawasan Perindustrian Bukit Minyak\n 14000 Bukit Mertajam\n Bukit Mertajam, Penang, Malaysia","MULTICOUNT":"FALSE"},"geometry":{"type":"Point","coordinates":[100.4547,5.300931]}},{"type":"Feature","properties":{"CADPARCOMP":"ATS Automation Tooling Systems Inc.","CADPROVHQ":"Ontario","TECHSEC":"Advanced Manufacturing","CITY":"Singapore","COUNTRY":"Singapore","ADDRESS":"39A Jalan Pemimpin\n #06-01A/#04-02A\n Halcyon Building\n Singapore 577183","MULTICOUNT":"FALSE"},"geometry":{"type":"Point","coordinates":[103.8406,1.349637]}},{"type":"Feature","properties":{"CADPARCOMP":"ATS Automation Tooling Systems Inc.","CADPROVHQ":"Ontario","TECHSEC":"Advanced Manufacturing","CITY":"Tambol Bangpleeyai","COUNTRY":"Thailand","ADDRESS":"333/97 Moo 6, Leabklongsongnam \nSuvarnabhumi Road\nTambol Bangpla, Amphur Bangplee\nSamutprakarn, Thailand\n10540","MULTICOUNT":"FALSE"},"geometry":{"type":"Point","coordinates":[100.7514134,13.5748862]}},{"type":"Feature","properties":{"CADPARCOMP":"Audiokinetic Inc.","CADPROVHQ":"Quebec","TECHSEC":"Software","CITY":"Tokyo","COUNTRY":"Japan","ADDRESS":"1F Place Canada, 7-3-37 Akasaka Minato-ku\n Tokyo 107-0052\n Japan","MULTICOUNT":"FALSE"},"geometry":{"type":"Point","coordinates":[139.7361,35.67568]}},{"type":"Feature","properties":{"CADPARCOMP":"Aurora Solar Technologies Inc.","CADPROVHQ":"British Columbia","TECHSEC":"Energy and Clean Technology","CITY":"Shanghai","COUNTRY":"China","ADDRESS":"501-542, 5/F, Tower 3, THE HUB\n\nNo. 888 Shenchang Road,\n\nMinhang District\n\nShanghai 201100, P.R. China","MULTICOUNT":"FALSE"},"geometry":{"type":"Point","coordinates":[121.313862,31.1992879]}},{"type":"Feature","properties":{"CADPARCOMP":"Averna","CADPROVHQ":"Quebec","TECHSEC":"Services and Analytics","CITY":"Yokohama","COUNTRY":"Japan","ADDRESS":"3-21-2 Motohama-cho, Naka-ku\nYokohama 231-0004 Japan","MULTICOUNT":"TRUE"},"geometry":{"type":"Point","coordinates":[139.640188,35.4491759]}},{"type":"Feature","properties":{"CADPARCOMP":"Aversan","CADPROVHQ":"Ontario","TECHSEC":"Services and Analytics","CITY":"Shanghai","COUNTRY":"China","ADDRESS":"Hua Yuan Building, Building #1, 21F\n 3500 Kaixuan Rd, Xuhui District\n Shanghai, China 200030","MULTICOUNT":"FALSE"},"geometry":{"type":"Point","coordinates":[121.433712,31.182036]}},{"type":"Feature","properties":{"CADPARCOMP":"Aversan","CADPROVHQ":"Ontario","TECHSEC":"Services and Analytics","CITY":"Dalian","COUNTRY":"China","ADDRESS":"Jin Cheng West Park Suite 7-1-601, Sha He Kou District, Dalian, China","MULTICOUNT":""},"geometry":{"type":"Point","coordinates":[121.580179,38.905365]}},{"type":"Feature","properties":{"CADPARCOMP":"Aversan","CADPROVHQ":"Ontario","TECHSEC":"Services and Analytics","CITY":"Chennai","COUNTRY":"India","ADDRESS":"153/82, High Gates \nFloor #9 M.R.C. Nagar\nSanthome High Road, Chennai\nTamil Nadu 600028 India","MULTICOUNT":"FALSE"},"geometry":{"type":"Point","coordinates":[80.2686215,13.0197964]}},{"type":"Feature","properties":{"CADPARCOMP":"Aversan","CADPROVHQ":"Ontario","TECHSEC":"Services and Analytics","CITY":"Singapore","COUNTRY":"Singapore","ADDRESS":"89 Short Street #B1-11 Golden Wall Centre, Singapore 188216","MULTICOUNT":"FALSE"},"geometry":{"type":"Point","coordinates":[103.851552,1.303684]}},{"type":"Feature","properties":{"CADPARCOMP":"Avetti.com Corporation","CADPROVHQ":"Ontario","TECHSEC":"Software","CITY":"Chengdu","COUNTRY":"China","ADDRESS":"dropped pin","MULTICOUNT":"FALSE"},"geometry":{"type":"Point","coordinates":[104.066801,30.572815]}},{"type":"Feature","properties":{"CADPARCOMP":"Avetti.com Corporation","CADPROVHQ":"Ontario","TECHSEC":"Software","CITY":"Hyderabad","COUNTRY":"India","ADDRESS":"H-No 1-62/K/36, 3rd Floor,\n\nPlot No:36, Spaces & More Business Park, Kavuri Hills Phase-1,\n\nHyderabad Telangana, India 500081","MULTICOUNT":"FALSE"},"geometry":{"type":"Point","coordinates":[78.3965179,17.4426494]}},{"type":"Feature","properties":{"CADPARCOMP":"Avetti.com Corporation","CADPROVHQ":"Ontario","TECHSEC":"Software","CITY":"Batam","COUNTRY":"Indonesia","ADDRESS":"dropped pin","MULTICOUNT":"FALSE"},"geometry":{"type":"Point","coordinates":[104.0529207,1.1300779]}},{"type":"Feature","properties":{"CADPARCOMP":"Avetti.com Corporation","CADPROVHQ":"Ontario","TECHSEC":"Software","CITY":"Singapore","COUNTRY":"Singapore","ADDRESS":"8 Temasek Boulevard\n\nLevel 42, Suntec Tower Three\n\nSingapore 038988","MULTICOUNT":"FALSE"},"geometry":{"type":"Point","coordinates":[103.8594992,1.2953149]}},{"type":"Feature","properties":{"CADPARCOMP":"Avigilon Corporation","CADPROVHQ":"British Columbia","TECHSEC":"Services and Analytics","CITY":"Singapore","COUNTRY":"Singapore","ADDRESS":"Motorola Solutions Singapore Pte. Ltd.\n80 Pasir Panjang Road #18-81\nMapletree Business City II\nSingapore 117372","MULTICOUNT":"TRUE"},"geometry":{"type":"Point","coordinates":[103.8006081,1.2758365]}},{"type":"Feature","properties":{"CADPARCOMP":"Avtech Electrosystems Ltd.","CADPROVHQ":"Ontario","TECHSEC":"Advanced Manufacturing","CITY":"Shenzhen","COUNTRY":"China","ADDRESS":"Room 2509, BaoTong Building\n13 District, BaoAn\nShenzhen, P.R.C (P.C.518133)","MULTICOUNT":"TRUE"},"geometry":{"type":"Point","coordinates":[113.8925919,22.5792481]}},{"type":"Feature","properties":{"CADPARCOMP":"Avtech Electrosystems Ltd.","CADPROVHQ":"Ontario","TECHSEC":"Advanced Manufacturing","CITY":"Beijing","COUNTRY":"China","ADDRESS":"Room C506, Ruipu Tower, 15, South Hong Jun Ying Road,\nChao Yang District, Beijing, P.R.C. (100012)","MULTICOUNT":"TRUE"},"geometry":{"type":"Point","coordinates":[115.7819587,39.5505767]}},{"type":"Feature","properties":{"CADPARCOMP":"Avtech Electrosystems Ltd.","CADPROVHQ":"Ontario","TECHSEC":"Advanced Manufacturing","CITY":"Shanghai","COUNTRY":"China","ADDRESS":"Unit 2112, 21F, Yong Sheng Tower\n2025, West Zhong Shan Road\nShanghai, P.R.C (P.C.200235)","MULTICOUNT":"TRUE"},"geometry":{"type":"Point","coordinates":[121.4819029,31.2510348]}},{"type":"Feature","properties":{"CADPARCOMP":"Avtech Electrosystems Ltd.","CADPROVHQ":"Ontario","TECHSEC":"Advanced Manufacturing","CITY":"Mumbai","COUNTRY":"India","ADDRESS":"Post Bag No. 6367, Unit 216\nRegal Industrial Estate,\nAcharya Donde Marg, Sewree, Mumbai - 400 015 India","MULTICOUNT":"TRUE"},"geometry":{"type":"Point","coordinates":[72.8513171,18.9986574]}},{"type":"Feature","properties":{"CADPARCOMP":"Avtech Electrosystems Ltd.","CADPROVHQ":"Ontario","TECHSEC":"Advanced Manufacturing","CITY":"Tokyo","COUNTRY":"Japan","ADDRESS":"Yushima Fuji Bldg. 301, 3-13-8 Yushima, Bunkyo-ku, Tokyo\n113-0034 Japan","MULTICOUNT":"TRUE"},"geometry":{"type":"Point","coordinates":[139.7682188,35.7078182]}},{"type":"Feature","properties":{"CADPARCOMP":"Avtech Electrosystems Ltd.","CADPROVHQ":"Ontario","TECHSEC":"Advanced Manufacturing","CITY":"Daejeon","COUNTRY":"South Korea","ADDRESS":"A-305, 289-1, Daewha-dong, Daedeok-gu,\nDaejon, 306-754, Korea\n018-453-2486","MULTICOUNT":"TRUE"},"geometry":{"type":"Point","coordinates":[127.4155717,36.3467189]}},{"type":"Feature","properties":{"CADPARCOMP":"Avtech Electrosystems Ltd.","CADPROVHQ":"Ontario","TECHSEC":"Advanced Manufacturing","CITY":"Taipei City","COUNTRY":"Taiwan","ADDRESS":"4th Floor, 308, Sec. 1 Nei-Hu Road\nNei-Hu, Taipei, Taiwan 114 R.O.C.","MULTICOUNT":"TRUE"},"geometry":{"type":"Point","coordinates":[121.5692811,25.0815803]}},{"type":"Feature","properties":{"CADPARCOMP":"Axia NGNetworks","CADPROVHQ":"Alberta","TECHSEC":"Telecommunications and Wireless Technology","CITY":"Singapore","COUNTRY":"Singapore","ADDRESS":"77 Robinson Road\n #05-00\n Singapore, 068896\n Singapore","MULTICOUNT":"FALSE"},"geometry":{"type":"Point","coordinates":[103.8483,1.277756]}},{"type":"Feature","properties":{"CADPARCOMP":"Axion Ventures Inc.","CADPROVHQ":"British Columbia","TECHSEC":"Software","CITY":"Shanghai","COUNTRY":"China","ADDRESS":"Yingpei Games Inc. 上海市徐汇区龙田路190\n号天华科技园1号楼1楼, Shanghai, 200235, China","MULTICOUNT":"FALSE"},"geometry":{"type":"Point","coordinates":[121.441497,31.173769]}},{"type":"Feature","properties":{"CADPARCOMP":"Axion Ventures Inc.","CADPROVHQ":"British Columbia","TECHSEC":"Software","CITY":"Jatujak","COUNTRY":"Thailand","ADDRESS":"74 Soi Song Sa-ard, Viphawadi Rangsit Rd,\nJompon, Jatujak,\nBangkok,\nThailand","MULTICOUNT":"FALSE"},"geometry":{"type":"Point","coordinates":[100.5642722,13.803225]}},{"type":"Feature","properties":{"CADPARCOMP":"Axonify","CADPROVHQ":"Ontario","TECHSEC":"Software","CITY":"Singapore","COUNTRY":"Singapore","ADDRESS":"28 Sin Ming Lane,\n#01-143, Midview City\nSingapore 573972","MULTICOUNT":"FALSE"},"geometry":{"type":"Point","coordinates":[103.8343959,1.3598411]}},{"type":"Feature","properties":{"CADPARCOMP":"AXYZ Automation Inc.","CADPROVHQ":"Ontario","TECHSEC":"Advanced Manufacturing","CITY":"Bengaluru","COUNTRY":"India","ADDRESS":"Ground Floor, \"RUKMINI PLAZA\"\nNo.1047, 20th Main, 5th Block, Rajajinagar\nBangalore, India 560 010","MULTICOUNT":"TRUE"},"geometry":{"type":"Point","coordinates":[77.549552,12.9861138]}},{"type":"Feature","properties":{"CADPARCOMP":"B.C. Instruments","CADPROVHQ":"Ontario","TECHSEC":"Advanced Manufacturing","CITY":"Vadodara","COUNTRY":"India","ADDRESS":"Plot No.1802/4, G.I.D.C.,\nRoad No.133, Vithal Udyognagar, Anand,\nGujarat 388121, India","MULTICOUNT":"FALSE"},"geometry":{"type":"Point","coordinates":[72.9203689,22.5244351]}},{"type":"Feature","properties":{"CADPARCOMP":"Bai Communications US, Inc.","CADPROVHQ":"Ontario","TECHSEC":"Telecommunications and Wireless Technology","CITY":"Hong Kong","COUNTRY":"Hong Kong","ADDRESS":"Suite No. 2102-05, 21/\n6 Shing Yip Street, Kwun Tong\nKowloon\nHong Kong","MULTICOUNT":"TRUE"},"geometry":{"type":"Point","coordinates":[114.225667,22.310509]}},{"type":"Feature","properties":{"CADPARCOMP":"Ballard Power Systems Ltd.","CADPROVHQ":"British Columbia","TECHSEC":"Energy and Clean Technology","CITY":"Foshan","COUNTRY":"China","ADDRESS":"No.10 South Foshan (Yunfu) Industrial Transfer Park, \nSilao Town, Yuncheng District, \nYunfu City, Guangdong Province","MULTICOUNT":"FALSE"},"geometry":{"type":"Point","coordinates":[112.247457,22.930354]}},{"type":"Feature","properties":{"CADPARCOMP":"Ballard Power Systems Ltd.","CADPROVHQ":"British Columbia","TECHSEC":"Energy and Clean Technology","CITY":"Guangzhou","COUNTRY":"China","ADDRESS":"Unit 1, Level 10 HNA Tower \n8 Linhe Zhong Road \nTianhe District, Guangzhou, China 510610","MULTICOUNT":"FALSE"},"geometry":{"type":"Point","coordinates":[113.325727,23.142552]}},{"type":"Feature","properties":{"CADPARCOMP":"Baylin Tech (licensee)","CADPROVHQ":"Ontario","TECHSEC":"Life Sciences","CITY":"Wuxi","COUNTRY":"China","ADDRESS":"No. 1, XiShi Road, Wuxi New District\nWuxi, Jiangsu Province, 214028\nPeoples Republic of China","MULTICOUNT":"FALSE"},"geometry":{"type":"Point","coordinates":[120.34862,31.548119]}},{"type":"Feature","properties":{"CADPARCOMP":"Baylin Tech (licensee)","CADPROVHQ":"Ontario","TECHSEC":"Life Sciences","CITY":"Suwon","COUNTRY":"South Korea","ADDRESS":"#B214, 306 Sinwon-ro\nYeongtong-gu, Suwon\nGyeonggi-do 16675\nSouth Korea","MULTICOUNT":"FALSE"},"geometry":{"type":"Point","coordinates":[127.0614163,37.2623916]}},{"type":"Feature","properties":{"CADPARCOMP":"Baylin Tech (licensee)","CADPROVHQ":"Ontario","TECHSEC":"Life Sciences","CITY":"Bac Ninh","COUNTRY":"Vietnam","ADDRESS":"Lot G1/G2,\nQue Vo Industrial Park II,\nBac Ninh Province, Vietnam","MULTICOUNT":"FALSE"},"geometry":{"type":"Point","coordinates":[106.1256652,21.1531741]}},{"type":"Feature","properties":{"CADPARCOMP":"Baylis Medical Inc.","CADPROVHQ":"Quebec","TECHSEC":"Life Sciences","CITY":"Beijing","COUNTRY":"China","ADDRESS":"Rm 1802, B building, Cyber Tower, No.2 Zhongguancun, South Ave, Haidian District\nBeijing P.R.\n100086\nChina","MULTICOUNT":"TRUE"},"geometry":{"type":"Point","coordinates":[116.323145,39.9660899]}},{"type":"Feature","properties":{"CADPARCOMP":"Baylis Medical Inc.","CADPROVHQ":"Quebec","TECHSEC":"Life Sciences","CITY":"Hong Kong","COUNTRY":"Hong Kong","ADDRESS":"Flat 6, 10F, Shatin Galleria, 18-24 Shan Mei Street, Fotan,\nShatin, N.T.\nHong kong","MULTICOUNT":"TRUE"},"geometry":{"type":"Point","coordinates":[114.193426,22.397326]}},{"type":"Feature","properties":{"CADPARCOMP":"Baylis Medical Inc.","CADPROVHQ":"Quebec","TECHSEC":"Life Sciences","CITY":"New Delhi","COUNTRY":"India","ADDRESS":"M-72 Greater Kalish\nPart II\nNew Delhi 110 48\nIndia","MULTICOUNT":"TRUE"},"geometry":{"type":"Point","coordinates":[77.239854,28.5482268]}},{"type":"Feature","properties":{"CADPARCOMP":"Baylis Medical Inc.","CADPROVHQ":"Quebec","TECHSEC":"Life Sciences","CITY":"Tokyo","COUNTRY":"Japan","ADDRESS":"NYK Tennoz Bldg. 2-2-20, Higashishinagawa, Shinagawa-ku\nTokyo\nJapan","MULTICOUNT":"TRUE"},"geometry":{"type":"Point","coordinates":[139.7499786,35.6220751]}},{"type":"Feature","properties":{"CADPARCOMP":"Baylis Medical Inc.","CADPROVHQ":"Quebec","TECHSEC":"Life Sciences","CITY":"Kuala Lumpur","COUNTRY":"Malaysia","ADDRESS":"N-2-7 Plaza Damas Sri Hartamas\nNo. 1, Jalan Sri Hartamas\nTaman Sri Hartamas\n50480 Kuala Lumpur","MULTICOUNT":"TRUE"},"geometry":{"type":"Point","coordinates":[101.6567168,3.1629055]}},{"type":"Feature","properties":{"CADPARCOMP":"Baylis Medical Inc.","CADPROVHQ":"Quebec","TECHSEC":"Life Sciences","CITY":"Seoul","COUNTRY":"South Korea","ADDRESS":"566-55 Yonnam-Dong\nMapo-Ku, Seoul\nSouth Korea","MULTICOUNT":"TRUE"},"geometry":{"type":"Point","coordinates":[126.9211941,37.560239]}},{"type":"Feature","properties":{"CADPARCOMP":"Baylis Medical Inc.","CADPROVHQ":"Quebec","TECHSEC":"Life Sciences","CITY":"Kaohsiung City","COUNTRY":"Taiwan","ADDRESS":"4F No. 335 Wunsin Road, Gushan District\nKaohsiung City\n80465\nTaiwan","MULTICOUNT":"TRUE"},"geometry":{"type":"Point","coordinates":[120.2685799,22.6495866]}},{"type":"Feature","properties":{"CADPARCOMP":"Benbria","CADPROVHQ":"Ontario","TECHSEC":"Services and Analytics","CITY":"Pune","COUNTRY":"India","ADDRESS":"Global Support Services\n303, Kapil Zenith Building\n3rd Floor, Behind Maratha Mandir\nBavdhan, Pune, India\n411021","MULTICOUNT":"TRUE"},"geometry":{"type":"Point","coordinates":[73.781341,18.511798]}},{"type":"Feature","properties":{"CADPARCOMP":"Best Theratronics","CADPROVHQ":"Ontario","TECHSEC":"Life Sciences","CITY":"Chennai","COUNTRY":"India","ADDRESS":"2/299A Plot No. 36, 5th Cross Street,\nV.G.P. Prabhu Nagar, Perumbakkam\nChennai – 600100\nIndia","MULTICOUNT":"FALSE"},"geometry":{"type":"Point","coordinates":[80.2010782,12.909177]}},{"type":"Feature","properties":{"CADPARCOMP":"Biomark Diagnostics Inc. (licensee)","CADPROVHQ":"British Columbia","TECHSEC":"Life Sciences","CITY":"Shanghai","COUNTRY":"China","ADDRESS":"Jia Hui Square Suite 4A, Tower 1\n2601 Xie Tu Road\nShanghai, China 200030","MULTICOUNT":"FALSE"},"geometry":{"type":"Point","coordinates":[121.443264,31.187227]}},{"type":"Feature","properties":{"CADPARCOMP":"Biorem Technologies Inc.","CADPROVHQ":"Ontario","TECHSEC":"Energy and Clean Technology","CITY":"Beijing","COUNTRY":"China","ADDRESS":"\"2 Nan Zhu Gan Alley,\nGalaxy SOHO, Tower D, Suite 50322\nDongcheng District, Beijing, China, 10010\"\n","MULTICOUNT":"FALSE"},"geometry":{"type":"Point","coordinates":[116.4783,39.92376]}},{"type":"Feature","properties":{"CADPARCOMP":"Biorem Technologies Inc.","CADPROVHQ":"Ontario","TECHSEC":"Energy and Clean Technology","CITY":"Selangor","COUNTRY":"Malaysia","ADDRESS":"19, Jalan BP 5/4, Bandar Bukit Puchong, 47100 Puchong, Selangor, Malaysia","MULTICOUNT":"FALSE"},"geometry":{"type":"Point","coordinates":[101.625411,2.98132]}},{"type":"Feature","properties":{"CADPARCOMP":"Blackberry","CADPROVHQ":"Ontario","TECHSEC":"Telecommunications and Wireless Technology","CITY":"Beijing","COUNTRY":"China","ADDRESS":"Fortune Financial Center, Level 21, No. 5, Dong San Huan Zhong Road, Chaoyang District, Beijing, China 100020","MULTICOUNT":""},"geometry":{"type":"Point","coordinates":[116.4902602,39.9749853]}},{"type":"Feature","properties":{"CADPARCOMP":"Blackberry","CADPROVHQ":"Ontario","TECHSEC":"Telecommunications and Wireless Technology","CITY":"Shanghai","COUNTRY":"China","ADDRESS":"1000 Jinhai Road, Pudong District, Shanghai, China 201206","MULTICOUNT":""},"geometry":{"type":"Point","coordinates":[121.620685,31.263778]}},{"type":"Feature","properties":{"CADPARCOMP":"Blackberry","CADPROVHQ":"Ontario","TECHSEC":"Telecommunications and Wireless Technology","CITY":"Hong Kong","COUNTRY":"Hong Kong","ADDRESS":"15th Floor Cityplaza Three, 14 Taikoo Wan Road, Taikoo Shing Island East, Hong Kong","MULTICOUNT":""},"geometry":{"type":"Point","coordinates":[114.216857,22.287445]}},{"type":"Feature","properties":{"CADPARCOMP":"Blixitt Inc.","CADPROVHQ":"Ontario","TECHSEC":"Life Sciences","CITY":"Hong Kong","COUNTRY":"Hong Kong","ADDRESS":"14F., Suite B-C \n Kwong On Bank Mongkok Branch Building\n 728-730 Nathan Road\n Kowloon Hong Kong S.A.R.","MULTICOUNT":"FALSE"},"geometry":{"type":"Point","coordinates":[114.1692,22.32135]}},{"type":"Feature","properties":{"CADPARCOMP":"Bluecat Networks Inc.","CADPROVHQ":"Ontario","TECHSEC":"Telecommunications and Wireless Technology","CITY":"Tokyo","COUNTRY":"Japan","ADDRESS":"8F, 1-6-3 Yurakucho, Chiyoda-ku Tokyo, Japan 100-0006","MULTICOUNT":"FALSE"},"geometry":{"type":"Point","coordinates":[139.7605,35.67347]}},{"type":"Feature","properties":{"CADPARCOMP":"Bluecat Networks Inc.","CADPROVHQ":"Ontario","TECHSEC":"Telecommunications and Wireless Technology","CITY":"Singapore","COUNTRY":"Singapore","ADDRESS":"9 Temasek Boulevard Suntec Tower Two #29-01 Singapore 038989","MULTICOUNT":"FALSE"},"geometry":{"type":"Point","coordinates":[103.8587,1.295714]}},{"type":"Feature","properties":{"CADPARCOMP":"Bombardier Inc.","CADPROVHQ":"Quebec","TECHSEC":"Advanced Manufacturing","CITY":"Suzhou","COUNTRY":"China","ADDRESS":"1 Qiming Road, Free Trade Zone, Suzhou Industrial Park Suzhou Jiangsu Province 215121 P. R. China","MULTICOUNT":"TRUE"},"geometry":{"type":"Point","coordinates":[113.2883908,22.2356943]}},{"type":"Feature","properties":{"CADPARCOMP":"Bombardier Inc.","CADPROVHQ":"Quebec","TECHSEC":"Advanced Manufacturing","CITY":"Guangzhou","COUNTRY":"China","ADDRESS":"Room 2003-2005, Suite A, China Shine Plaza, No. 9 Lin He Xi Road,Tian He District Guangzhou, Guangdong Province 510610, P. R. China","MULTICOUNT":"TRUE"},"geometry":{"type":"Point","coordinates":[113.2883908,22.2356943]}},{"type":"Feature","properties":{"CADPARCOMP":"Bombardier Inc.","CADPROVHQ":"Quebec","TECHSEC":"Advanced Manufacturing","CITY":"Beijing","COUNTRY":"China","ADDRESS":"Unit 3903, 39/F, Tower C, Beijing Yintai Center, No. 2 Jianguomenwai Street,, Chaoyang District, Beijing 100022, P. R. of China","MULTICOUNT":"TRUE"},"geometry":{"type":"Point","coordinates":[116.4408,39.9044]}},{"type":"Feature","properties":{"CADPARCOMP":"Bombardier Inc.","CADPROVHQ":"Quebec","TECHSEC":"Advanced Manufacturing","CITY":"Changzhou","COUNTRY":"China","ADDRESS":"Qianjia Industrial Park, Yaoguan Changzhou Jiangsu Providence 213011 P. R. China","MULTICOUNT":"TRUE"},"geometry":{"type":"Point","coordinates":[120.036276,31.722228]}},{"type":"Feature","properties":{"CADPARCOMP":"Bombardier Inc.","CADPROVHQ":"Quebec","TECHSEC":"Advanced Manufacturing","CITY":"Qingdao","COUNTRY":"China","ADDRESS":"Jinling Industrial Park, Chenyang District Jihongtan Qingdao 266111  P. R. China","MULTICOUNT":"TRUE"},"geometry":{"type":"Point","coordinates":[120.2704805,36.33803]}},{"type":"Feature","properties":{"CADPARCOMP":"Bombardier Inc.","CADPROVHQ":"Quebec","TECHSEC":"Advanced Manufacturing","CITY":"Qingdao","COUNTRY":"China","ADDRESS":"Jihongtan, Chenyang District Qingdao 266071 P. R. China","MULTICOUNT":"TRUE"},"geometry":{"type":"Point","coordinates":[120.3935803,36.0688126]}},{"type":"Feature","properties":{"CADPARCOMP":"Bombardier Inc.","CADPROVHQ":"Quebec","TECHSEC":"Advanced Manufacturing","CITY":"Shanghai","COUNTRY":"China","ADDRESS":"BRTE Office, A 15th Floor, New Shanghai International Tower, No. 360 Pudong Road South, Shanghai 200120, P. R. China","MULTICOUNT":"TRUE"},"geometry":{"type":"Point","coordinates":[121.508932,31.238934]}},{"type":"Feature","properties":{"CADPARCOMP":"Bombardier Inc.","CADPROVHQ":"Quebec","TECHSEC":"Advanced Manufacturing","CITY":"Shanghai","COUNTRY":"China","ADDRESS":"IPO Office, B/C 15th Floor, New Shanghai International Tower, No. 360 Pudong Road South, Shanghai 200120, P. R. China","MULTICOUNT":"TRUE"},"geometry":{"type":"Point","coordinates":[121.508932,31.238934]}},{"type":"Feature","properties":{"CADPARCOMP":"Bombardier Inc.","CADPROVHQ":"Quebec","TECHSEC":"Advanced Manufacturing","CITY":"Shanghai","COUNTRY":"China","ADDRESS":"Suite 3804/3801A, Taiping Finance Building 488 Yincheng Zhong Road, Pudong New District, Shanghai 200120, P.R. of China","MULTICOUNT":"TRUE"},"geometry":{"type":"Point","coordinates":[121.512934,31.2420715]}},{"type":"Feature","properties":{"CADPARCOMP":"Bombardier Inc.","CADPROVHQ":"Quebec","TECHSEC":"Advanced Manufacturing","CITY":"Changchun","COUNTRY":"China","ADDRESS":"No. 435 Qingyin Road Changchun Jilin Province 130062 P. R. China","MULTICOUNT":"TRUE"},"geometry":{"type":"Point","coordinates":[125.297128,43.904559]}},{"type":"Feature","properties":{"CADPARCOMP":"Bombardier Inc.","CADPROVHQ":"Quebec","TECHSEC":"Advanced Manufacturing","CITY":"Hong Kong","COUNTRY":"Hong Kong","ADDRESS":"Suite 508, One Citygate, 20 Tat Tung Rd, Tung Chung, Lantau, Hong Kong, China","MULTICOUNT":"TRUE"},"geometry":{"type":"Point","coordinates":[113.9417024,22.2902581]}},{"type":"Feature","properties":{"CADPARCOMP":"Bombardier Inc.","CADPROVHQ":"Quebec","TECHSEC":"Advanced Manufacturing","CITY":"Hong Kong","COUNTRY":"Hong Kong","ADDRESS":"Suite 503, 5/F, Fairmont House 8 Cotton Tree Drive, Central  Hong Kong P.R. of China","MULTICOUNT":"TRUE"},"geometry":{"type":"Point","coordinates":[114.1626925,22.2799435]}},{"type":"Feature","properties":{"CADPARCOMP":"Bombardier Inc.","CADPROVHQ":"Quebec","TECHSEC":"Advanced Manufacturing","CITY":"Hong Kong","COUNTRY":"Hong Kong","ADDRESS":"Suite 503, 5/F, Fairmont House, 8 Cotton Tree Drive, Central, Hong Kong, P.R. of China","MULTICOUNT":"TRUE"},"geometry":{"type":"Point","coordinates":[114.1626925,22.2799435]}},{"type":"Feature","properties":{"CADPARCOMP":"Bombardier Inc.","CADPROVHQ":"Quebec","TECHSEC":"Advanced Manufacturing","CITY":"Hong Kong","COUNTRY":"Hong Kong","ADDRESS":"Room 505, Houston Centre, 63 Mody Road, Tsimshatsui East, Kowloon, Hong Kong, P. R. China","MULTICOUNT":"TRUE"},"geometry":{"type":"Point","coordinates":[114.17689,22.298037]}},{"type":"Feature","properties":{"CADPARCOMP":"Bombardier Inc.","CADPROVHQ":"Quebec","TECHSEC":"Advanced Manufacturing","CITY":"Mumbai","COUNTRY":"India","ADDRESS":"Office No. 225, DBS Business Center 213, Raheja Chambers 2nd Floor, Free Press Journal Road, Nariman Point, Mumbai 400 021, India","MULTICOUNT":"TRUE"},"geometry":{"type":"Point","coordinates":[72.824225,18.925574]}},{"type":"Feature","properties":{"CADPARCOMP":"Bombardier Inc.","CADPROVHQ":"Quebec","TECHSEC":"Advanced Manufacturing","CITY":"Mumbai","COUNTRY":"India","ADDRESS":"#221/222, Wing 'C', 215 Atrium, Chakala, Andheri Kurla Road, Andheri (East), Mumbai 400 059, India","MULTICOUNT":"TRUE"},"geometry":{"type":"Point","coordinates":[72.8652793,19.1141267]}},{"type":"Feature","properties":{"CADPARCOMP":"Bombardier Inc.","CADPROVHQ":"Quebec","TECHSEC":"Advanced Manufacturing","CITY":"Vadodara","COUNTRY":"India","ADDRESS":"Plot no.724, GIDC Industrial Estate Phase-3, Savli Dist., Vadodara - 390013. India","MULTICOUNT":"TRUE"},"geometry":{"type":"Point","coordinates":[73.1792125,22.2379162]}},{"type":"Feature","properties":{"CADPARCOMP":"Bombardier Inc.","CADPROVHQ":"Quebec","TECHSEC":"Advanced Manufacturing","CITY":"Vadodara","COUNTRY":"India","ADDRESS":"ERDA Road, Maneja Vadodara 390 013 India","MULTICOUNT":"TRUE"},"geometry":{"type":"Point","coordinates":[73.1857842,22.2436738]}},{"type":"Feature","properties":{"CADPARCOMP":"Bombardier Inc.","CADPROVHQ":"Quebec","TECHSEC":"Advanced Manufacturing","CITY":"Gurugram","COUNTRY":"India","ADDRESS":"Fourth Floor, DLF Cyber Green, Tower B DLF Cyber City, Phase III, Gurgaon - 122002 Haryana, India","MULTICOUNT":"TRUE"},"geometry":{"type":"Point","coordinates":[77.1048978,28.474679]}},{"type":"Feature","properties":{"CADPARCOMP":"Bombardier Inc.","CADPROVHQ":"Quebec","TECHSEC":"Advanced Manufacturing","CITY":"New Delhi","COUNTRY":"India","ADDRESS":"\nNovotel-Pullman Commercial Tower, 3rd Floor\nAero City, Delhi International Airport\nNew Delhi 110 037\nIndia","MULTICOUNT":"TRUE"},"geometry":{"type":"Point","coordinates":[77.123259,28.5535641]}},{"type":"Feature","properties":{"CADPARCOMP":"Bombardier Inc.","CADPROVHQ":"Quebec","TECHSEC":"Advanced Manufacturing","CITY":"Bengaluru","COUNTRY":"India","ADDRESS":"#3 Ulsoor Road, 1st Floor, Salarpuria Windsor Bangalore 560042 India","MULTICOUNT":"TRUE"},"geometry":{"type":"Point","coordinates":[77.6130519,12.9827745]}},{"type":"Feature","properties":{"CADPARCOMP":"Bombardier Inc.","CADPROVHQ":"Quebec","TECHSEC":"Advanced Manufacturing","CITY":"Kolkata","COUNTRY":"India","ADDRESS":"Office No. 102, DBS House, 10/2 Hungerford Street, Kolkata 700 017, India","MULTICOUNT":"TRUE"},"geometry":{"type":"Point","coordinates":[88.3552652,22.5476881]}},{"type":"Feature","properties":{"CADPARCOMP":"Bombardier Inc.","CADPROVHQ":"Quebec","TECHSEC":"Advanced Manufacturing","CITY":"Tokyo","COUNTRY":"Japan","ADDRESS":"5F, No.5 Sogo Bldg. 1-6-5 Haneda Airport, Ota-ku (SEIBIJO), 144-0041 Tokyo, Japan","MULTICOUNT":"TRUE"},"geometry":{"type":"Point","coordinates":[139.7779881,35.5483065]}},{"type":"Feature","properties":{"CADPARCOMP":"Bombardier Inc.","CADPROVHQ":"Quebec","TECHSEC":"Advanced Manufacturing","CITY":"Kuala Lumpur","COUNTRY":"Malaysia","ADDRESS":"Level 25, Axiata Tower No.9, Jalan Stesen Sentral 5, Kuala Lumpur Sentral, 50470 Kuala Lumpur, Malaysia","MULTICOUNT":"TRUE"},"geometry":{"type":"Point","coordinates":[101.686855,3.139003]}},{"type":"Feature","properties":{"CADPARCOMP":"Bombardier Inc.","CADPROVHQ":"Quebec","TECHSEC":"Advanced Manufacturing","CITY":"Pasig City","COUNTRY":"Philippines","ADDRESS":"5th floor, Room 504, Richmond Plaza, San Miguel Ave., Ortigas Center, Pasig City 1605, Philippines","MULTICOUNT":"TRUE"},"geometry":{"type":"Point","coordinates":[121.774017,12.879721]}},{"type":"Feature","properties":{"CADPARCOMP":"Bombardier Inc.","CADPROVHQ":"Quebec","TECHSEC":"Advanced Manufacturing","CITY":"Cebu City","COUNTRY":"Philippines","ADDRESS":"14th Floor, TGU Tower, JM Del Mar Avenue corner Salinas Drive, Asiatown I.T. Park, Apas, Cebu City 6000, Philippines","MULTICOUNT":"TRUE"},"geometry":{"type":"Point","coordinates":[123.90611,10.327807]}},{"type":"Feature","properties":{"CADPARCOMP":"Bombardier Inc.","CADPROVHQ":"Quebec","TECHSEC":"Advanced Manufacturing","CITY":"Singapore","COUNTRY":"Singapore","ADDRESS":"101 Thomson Road, #17-05 United Square, Singapore - 307591","MULTICOUNT":"TRUE"},"geometry":{"type":"Point","coordinates":[103.843491,1.317711]}},{"type":"Feature","properties":{"CADPARCOMP":"Bombardier Inc.","CADPROVHQ":"Quebec","TECHSEC":"Advanced Manufacturing","CITY":"Singapore","COUNTRY":"Singapore","ADDRESS":"10 Kallang Avenue, #05-12/13 Aperia Tower 2, Singapore 339510","MULTICOUNT":"TRUE"},"geometry":{"type":"Point","coordinates":[103.862992,1.312333]}},{"type":"Feature","properties":{"CADPARCOMP":"Bombardier Inc.","CADPROVHQ":"Quebec","TECHSEC":"Advanced Manufacturing","CITY":"Singapore","COUNTRY":"Singapore","ADDRESS":"10 Seletar Aerospace Heights, Seletar Aerospace Park, Seletar Aerospace Park, Singapore 797546","MULTICOUNT":"TRUE"},"geometry":{"type":"Point","coordinates":[103.8662685,1.4054053]}},{"type":"Feature","properties":{"CADPARCOMP":"Bombardier Inc.","CADPROVHQ":"Quebec","TECHSEC":"Advanced Manufacturing","CITY":"Seoul","COUNTRY":"South Korea","ADDRESS":"BTIH Co. Ltd.\n4th Fl., Samwha Bldg., 21 Sokong-dong, Joong-ku, 100-070 Seoul, South Korea","MULTICOUNT":"TRUE"},"geometry":{"type":"Point","coordinates":[126.9802986,37.5638718]}},{"type":"Feature","properties":{"CADPARCOMP":"Bombardier Inc.","CADPROVHQ":"Quebec","TECHSEC":"Advanced Manufacturing","CITY":"Taipei City","COUNTRY":"Taiwan","ADDRESS":"Bombardier Transportation 3F, No. 130, Section 4, Nanjing East Road, Taipei 10553, Taiwan, R.O.C.","MULTICOUNT":"TRUE"},"geometry":{"type":"Point","coordinates":[121.555654,25.051351]}},{"type":"Feature","properties":{"CADPARCOMP":"Bombardier Inc.","CADPROVHQ":"Quebec","TECHSEC":"Advanced Manufacturing","CITY":"Bangkok","COUNTRY":"Thailand","ADDRESS":"3354 / 16-19 Manorom Bldg., 2nd Floor Rama 4 Rd. Klongton, Klontoey, Bangkok, Thailand","MULTICOUNT":"TRUE"},"geometry":{"type":"Point","coordinates":[100.5017651,13.7563309]}},{"type":"Feature","properties":{"CADPARCOMP":"BQE Water","CADPROVHQ":"British Columbia","TECHSEC":"Energy and Clean Technology","CITY":"Dexing ","COUNTRY":"China","ADDRESS":"dropped pin","MULTICOUNT":"FALSE"},"geometry":{"type":"Point","coordinates":[117.76596,28.879046]}},{"type":"Feature","properties":{"CADPARCOMP":"Bredero Shaw (S) Pte. Ltd.","CADPROVHQ":"Ontario","TECHSEC":"Energy and Clean Technology","CITY":"Singapore","COUNTRY":"Singapore","ADDRESS":"101 Thomson Road\n #17-01/02 United Square\n Singapore 307591","MULTICOUNT":"FALSE"},"geometry":{"type":"Point","coordinates":[103.8435,1.317725]}},{"type":"Feature","properties":{"CADPARCOMP":"Bryston Ltd.","CADPROVHQ":"Ontario","TECHSEC":"Advanced Manufacturing","CITY":"Hong Kong","COUNTRY":"Hong Kong","ADDRESS":"Room 1301 Floor 13 Hamilton Commercial Building, No. 560 Nathan Road, \nMongkok, Hong Kong","MULTICOUNT":"FALSE"},"geometry":{"type":"Point","coordinates":[114.1706187,22.3144694]}},{"type":"Feature","properties":{"CADPARCOMP":"Bryston Ltd.","CADPROVHQ":"Ontario","TECHSEC":"Advanced Manufacturing","CITY":"Mumbai","COUNTRY":"India","ADDRESS":"\n397-A 1B Mangaldas House, Naaz Cinema Compound, Lamington, Mumbai, 400004, India","MULTICOUNT":"FALSE"},"geometry":{"type":"Point","coordinates":[72.818183,18.959158]}},{"type":"Feature","properties":{"CADPARCOMP":"Bryston Ltd.","CADPROVHQ":"Ontario","TECHSEC":"Advanced Manufacturing","CITY":"Jakarta Barat/West Jakarta","COUNTRY":"Indonesia","ADDRESS":"Jl. Puri Kembangan No: 118 A, Kelurahan Kedoya, Kecamatan Kebon Jeruk., Jakarta Barat, 11520","MULTICOUNT":"FALSE"},"geometry":{"type":"Point","coordinates":[106.757081,-6.183185]}},{"type":"Feature","properties":{"CADPARCOMP":"Bryston Ltd.","CADPROVHQ":"Ontario","TECHSEC":"Advanced Manufacturing","CITY":"Tokyo","COUNTRY":"Japan","ADDRESS":"3-5-12 Konan, Minato-ku Tokyo 108-0075, Japan","MULTICOUNT":"FALSE"},"geometry":{"type":"Point","coordinates":[139.7577026,35.6284856]}},{"type":"Feature","properties":{"CADPARCOMP":"Bryston Ltd.","CADPROVHQ":"Ontario","TECHSEC":"Advanced Manufacturing","CITY":"Kuala Lumpur","COUNTRY":"Malaysia","ADDRESS":"H-2-6, Block H, Boulevard Business Park, No.115, Jalan Kepayang\n51200 Kuala Lumpur, Malaysia","MULTICOUNT":"FALSE"},"geometry":{"type":"Point","coordinates":[101.6715245,3.1989317]}},{"type":"Feature","properties":{"CADPARCOMP":"Bryston Ltd.","CADPROVHQ":"Ontario","TECHSEC":"Advanced Manufacturing","CITY":"Mandaluyong City","COUNTRY":"Philippines","ADDRESS":"Level 4, Shangri-la-Plaza Mall, Edsa, cor. Shaw Blvd., Mandaluyong City, Philippines","MULTICOUNT":"FALSE"},"geometry":{"type":"Point","coordinates":[121.055258,14.580614]}},{"type":"Feature","properties":{"CADPARCOMP":"Bryston Ltd.","CADPROVHQ":"Ontario","TECHSEC":"Advanced Manufacturing","CITY":"Singapore","COUNTRY":"Singapore","ADDRESS":"1 Coleman Street, Unit #02-05, The Adelphi, Singapore 179803","MULTICOUNT":"FALSE"},"geometry":{"type":"Point","coordinates":[103.85123,1.291169]}},{"type":"Feature","properties":{"CADPARCOMP":"Bryston Ltd.","CADPROVHQ":"Ontario","TECHSEC":"Advanced Manufacturing","CITY":"Seoul","COUNTRY":"South Korea","ADDRESS":"B/D 2F, Samjeon-dong, Songpa-gu, Seoul, Korea","MULTICOUNT":"FALSE"},"geometry":{"type":"Point","coordinates":[127.090102,37.5055226]}},{"type":"Feature","properties":{"CADPARCOMP":"Bryston Ltd.","CADPROVHQ":"Ontario","TECHSEC":"Advanced Manufacturing","CITY":"Taichung City","COUNTRY":"Taiwan","ADDRESS":"4F., No. 92 Zhonghua Rd., Quingshui Dist. Taichung City 436, Taiwan (R.O.C.)","MULTICOUNT":"FALSE"},"geometry":{"type":"Point","coordinates":[120.5604583,24.2600842]}},{"type":"Feature","properties":{"CADPARCOMP":"Bryston Ltd.","CADPROVHQ":"Ontario","TECHSEC":"Advanced Manufacturing","CITY":"Bangkok","COUNTRY":"Thailand","ADDRESS":"910 Srinakarin Road, Suanluang, Bangkok 10250 Thailand","MULTICOUNT":"FALSE"},"geometry":{"type":"Point","coordinates":[100.6412599,13.7248576]}},{"type":"Feature","properties":{"CADPARCOMP":"Bryston Ltd.","CADPROVHQ":"Ontario","TECHSEC":"Advanced Manufacturing","CITY":"Ho Chi Minh City","COUNTRY":"Vietnam","ADDRESS":"719 Tran Hung Dao, Q.5, Hochiminh City, Vietnam","MULTICOUNT":"FALSE"},"geometry":{"type":"Point","coordinates":[106.6829549,10.7555184]}},{"type":"Feature","properties":{"CADPARCOMP":"BTI Systems","CADPROVHQ":"Ontario","TECHSEC":"Software","CITY":"Wuhan","COUNTRY":"China","ADDRESS":"East wing 20th Floor, Jointly International Mansion, Wu Jia Wan, No 609 Luo Yu Road, Hongshan District, 430073 Wuhan, China","MULTICOUNT":"FALSE"},"geometry":{"type":"Point","coordinates":[114.4151432,30.503966]}},{"type":"Feature","properties":{"CADPARCOMP":"BTI Systems","CADPROVHQ":"Ontario","TECHSEC":"Software","CITY":"Shanghai","COUNTRY":"China","ADDRESS":"Regus Shanghai Mart Centre, Rm242, 2nd Floor, Office Building, Shanghai Mart Tower, No. 2299, Yan An West Road, Chang Ning District, 200336 Shanghai, P.R.China","MULTICOUNT":"FALSE"},"geometry":{"type":"Point","coordinates":[121.3848549,31.2123313]}},{"type":"Feature","properties":{"CADPARCOMP":"Cadex Electronics Inc.","CADPROVHQ":"British Columbia","TECHSEC":"Energy and Clean Technology","CITY":"New Delhi","COUNTRY":"India","ADDRESS":"A-8, Mohan Cooperative Industrial Estate,\n Mathura Road, \n New Delhi - 110 044","MULTICOUNT":"FALSE"},"geometry":{"type":"Point","coordinates":[77.30011,28.50697]}},{"type":"Feature","properties":{"CADPARCOMP":"CAE Healthcare","CADPROVHQ":"Quebec","TECHSEC":"Advanced Manufacturing","CITY":"Hyderabad","COUNTRY":"India","ADDRESS":"8-2-326/5, Road No. 3,\nBanjara Hills,\nHyderabad-500034","MULTICOUNT":"TRUE"},"geometry":{"type":"Point","coordinates":[78.442029,17.423852]}},{"type":"Feature","properties":{"CADPARCOMP":"CAE Inc.","CADPROVHQ":"Quebec","TECHSEC":"Advanced Manufacturing","CITY":"Tungku","COUNTRY":"Brunei","ADDRESS":"1 Digital Junction, Jalan Paya Sailaila, \nKg. Tungku, Lebuh Raya Tungku, \nGadong A. BE2119 Negara \nBrunei Darussalam","MULTICOUNT":"TRUE"},"geometry":{"type":"Point","coordinates":[114.8990834,4.9556378]}},{"type":"Feature","properties":{"CADPARCOMP":"CAE Inc.","CADPROVHQ":"Quebec","TECHSEC":"Advanced Manufacturing","CITY":"Guangzhou","COUNTRY":"China","ADDRESS":"Guangzhou, 510000","MULTICOUNT":"TRUE"},"geometry":{"type":"Point","coordinates":[113.2931741,23.2159405]}},{"type":"Feature","properties":{"CADPARCOMP":"CAE Inc.","CADPROVHQ":"Quebec","TECHSEC":"Advanced Manufacturing","CITY":"Zhuhai","COUNTRY":"China","ADDRESS":"163 Shi Hua Xi Lu, Zhuhai Municipality, Guangdong Province, 519015 People’s Republic of China","MULTICOUNT":"TRUE"},"geometry":{"type":"Point","coordinates":[113.563451,22.237708]}},{"type":"Feature","properties":{"CADPARCOMP":"CAE Inc.","CADPROVHQ":"Quebec","TECHSEC":"Advanced Manufacturing","CITY":"Beijing","COUNTRY":"China","ADDRESS":"Unit 331 Hyundai Motor Tower\nNo. 38 Xiaoyun Road, Beijing 100027, China","MULTICOUNT":"TRUE"},"geometry":{"type":"Point","coordinates":[116.4626331,39.9559127]}},{"type":"Feature","properties":{"CADPARCOMP":"CAE Inc.","CADPROVHQ":"Quebec","TECHSEC":"Advanced Manufacturing","CITY":"Shanghai","COUNTRY":"China","ADDRESS":"518 Fasai Road\nWaigaoqiao Free Trade Zone\nPudong New District\nShanghai, People's Republic of China","MULTICOUNT":"TRUE"},"geometry":{"type":"Point","coordinates":[121.6234976,31.3270994]}},{"type":"Feature","properties":{"CADPARCOMP":"CAE Inc.","CADPROVHQ":"Quebec","TECHSEC":"Advanced Manufacturing","CITY":"Hong Kong","COUNTRY":"Hong Kong","ADDRESS":"1/F, CAE Flight Training Centre,\n11 Tung Fai Road,\nHong Kong International Airport,\nLantau,\nHong Kong","MULTICOUNT":"TRUE"},"geometry":{"type":"Point","coordinates":[113.9391952,22.3035224]}},{"type":"Feature","properties":{"CADPARCOMP":"CAE Inc.","CADPROVHQ":"Quebec","TECHSEC":"Advanced Manufacturing","CITY":"Gurugram","COUNTRY":"India","ADDRESS":"Global Business Park, Tower-B, Office No: 303, Beside Guru Dhronacharya Metro Station\nMG Road, Gurgaon India,122002","MULTICOUNT":"TRUE"},"geometry":{"type":"Point","coordinates":[77.1021666,28.4813954]}},{"type":"Feature","properties":{"CADPARCOMP":"CAE Inc.","CADPROVHQ":"Quebec","TECHSEC":"Advanced Manufacturing","CITY":"Noida","COUNTRY":"India","ADDRESS":"Ground Floor, Plot No 25/3, Sector KP III,Greater Noida Industrial Development Area, Gautham Budh Nagar,Uttar Pradesh,- 201306,India","MULTICOUNT":"TRUE"},"geometry":{"type":"Point","coordinates":[77.4587239,28.5199]}},{"type":"Feature","properties":{"CADPARCOMP":"CAE Inc.","CADPROVHQ":"Quebec","TECHSEC":"Advanced Manufacturing","CITY":"Bengaluru","COUNTRY":"India","ADDRESS":"Opp. ARDC , HAL, VIBHUTIPURA \nMarathahally Post \nBangalore - 560037 \nIndia","MULTICOUNT":"TRUE"},"geometry":{"type":"Point","coordinates":[77.6842351,12.9613623]}},{"type":"Feature","properties":{"CADPARCOMP":"CAE Inc.","CADPROVHQ":"Quebec","TECHSEC":"Advanced Manufacturing","CITY":"Bengaluru","COUNTRY":"India","ADDRESS":"No.26 & 27, IVC Road Bandaramanahalli Village, Uganvadi Post Devanahalli Taluk, Bengaluru - 562110","MULTICOUNT":"TRUE"},"geometry":{"type":"Point","coordinates":[77.7098072,13.2437365]}},{"type":"Feature","properties":{"CADPARCOMP":"CAE Inc.","CADPROVHQ":"Quebec","TECHSEC":"Advanced Manufacturing","CITY":"Gondia","COUNTRY":"India","ADDRESS":"National Flying Training Institute (NFTI), c/o Airport Authority of India, Birsi Airport, PO Paraswada, Gondia, 441-614, Maharashtra, India","MULTICOUNT":"TRUE"},"geometry":{"type":"Point","coordinates":[80.2960306,21.5198514]}},{"type":"Feature","properties":{"CADPARCOMP":"CAE Inc.","CADPROVHQ":"Quebec","TECHSEC":"Advanced Manufacturing","CITY":"Tokyo","COUNTRY":"Japan","ADDRESS":"Ginza Daiei Building 5F, 1-16-7 Ginza, Chuo-ku, Tokyo 104-0061,Japan","MULTICOUNT":"TRUE"},"geometry":{"type":"Point","coordinates":[139.7693318,35.6709348]}},{"type":"Feature","properties":{"CADPARCOMP":"CAE Inc.","CADPROVHQ":"Quebec","TECHSEC":"Advanced Manufacturing","CITY":"Tokyo","COUNTRY":"Japan","ADDRESS":"JAL CAE Flight Training (JCFT), JAL Technical Center 2, 3-6-8 Haneda Airport Ota-ku, Tokyo 144-0041, Japan","MULTICOUNT":"TRUE"},"geometry":{"type":"Point","coordinates":[139.7798386,35.5493932]}},{"type":"Feature","properties":{"CADPARCOMP":"CAE Inc.","CADPROVHQ":"Quebec","TECHSEC":"Advanced Manufacturing","CITY":"Kuala Lumpur","COUNTRY":"Malaysia","ADDRESS":"Lot PT25, Jalan KLIA S5 Bandar Lapangan Terbang Antarabangsa Kuala Lumpur 64000 Sepang, Selangor Darul Ehsan Malaysia","MULTICOUNT":"TRUE"},"geometry":{"type":"Point","coordinates":[101.701464,2.7545553]}},{"type":"Feature","properties":{"CADPARCOMP":"CAE Inc.","CADPROVHQ":"Quebec","TECHSEC":"Advanced Manufacturing","CITY":"Pampanga","COUNTRY":"Philippines","ADDRESS":"Corner P. Kalaw Street, C.M Recto Highway, Clark Freeport Zone, Pampanga, Philippines 2009","MULTICOUNT":"TRUE"},"geometry":{"type":"Point","coordinates":[120.5172945,15.1785987]}},{"type":"Feature","properties":{"CADPARCOMP":"CAE Inc.","CADPROVHQ":"Quebec","TECHSEC":"Advanced Manufacturing","CITY":"Singapore","COUNTRY":"Singapore","ADDRESS":"Level 30, Suite 62\nSingapore Land Tower\n50 Raffles\nSingapore\n048623","MULTICOUNT":"TRUE"},"geometry":{"type":"Point","coordinates":[103.8519923,1.2847487]}},{"type":"Feature","properties":{"CADPARCOMP":"CAE Inc.","CADPROVHQ":"Quebec","TECHSEC":"Advanced Manufacturing","CITY":"Singapore","COUNTRY":"Singapore","ADDRESS":"2 Seletar Aerospace Link,  Singapore 797570","MULTICOUNT":"TRUE"},"geometry":{"type":"Point","coordinates":[103.8582522,1.4056594]}},{"type":"Feature","properties":{"CADPARCOMP":"CAE Inc.","CADPROVHQ":"Quebec","TECHSEC":"Advanced Manufacturing","CITY":"Singapore","COUNTRY":"Singapore","ADDRESS":"720 Upper Changi Road East, Annex Building, Singapore 486852","MULTICOUNT":"TRUE"},"geometry":{"type":"Point","coordinates":[103.9660987,1.345733]}},{"type":"Feature","properties":{"CADPARCOMP":"CAE Inc.","CADPROVHQ":"Quebec","TECHSEC":"Advanced Manufacturing","CITY":"Seoul","COUNTRY":"South Korea","ADDRESS":"210 Haneul-gil, Gangseo-gu, Seoul, Gate 8\nSouth Korea\nPostal Code ; 07505","MULTICOUNT":"TRUE"},"geometry":{"type":"Point","coordinates":[126.8067017,37.555525]}},{"type":"Feature","properties":{"CADPARCOMP":"CAE Inc.","CADPROVHQ":"Quebec","TECHSEC":"Advanced Manufacturing","CITY":"Ho Chi Minh City","COUNTRY":"Vietnam","ADDRESS":"117 Hong Ha Street - Ward02 , Tan Binh, Ho Chi Minh, Vietnam","MULTICOUNT":"TRUE"},"geometry":{"type":"Point","coordinates":[106.6709156,10.8115128]}},{"type":"Feature","properties":{"CADPARCOMP":"CAE Inc.","CADPROVHQ":"Quebec","TECHSEC":"Advanced Manufacturing","CITY":"Ho Chi Minh City","COUNTRY":"Vietnam","ADDRESS":"Halotiki Business Centre, Floor 23, AB Tower, 76A Le Lai, Dist 1, HCMC, Vietnam","MULTICOUNT":"TRUE"},"geometry":{"type":"Point","coordinates":[106.6944455,10.7702957]}},{"type":"Feature","properties":{"CADPARCOMP":"Caisse de dépôt et placement du Québec (CDPQ)","CADPROVHQ":"Quebec","TECHSEC":"Energy and Clean Technology","CITY":"Tokyo","COUNTRY":"Japan","ADDRESS":"Bancho Fifth Building, 5F\n5-5 Nibancho\nChiyoda-ku, Tokyo\n102-0084\nJapan","MULTICOUNT":"TRUE"},"geometry":{"type":"Point","coordinates":[139.7367602,35.6858194]}},{"type":"Feature","properties":{"CADPARCOMP":"Calgary Scientific Inc.","CADPROVHQ":"Alberta","TECHSEC":"Services and Analytics","CITY":"Hong Kong","COUNTRY":"Hong Kong","ADDRESS":"8/F, 88 Gloucester Road, Wan Chai, Hong Kong","MULTICOUNT":"FALSE"},"geometry":{"type":"Point","coordinates":[114.1733,22.27891]}},{"type":"Feature","properties":{"CADPARCOMP":"Camso","CADPROVHQ":"Quebec","TECHSEC":"Advanced Manufacturing","CITY":"Yokohama","COUNTRY":"Japan","ADDRESS":"Nisso Bldg 16, Shin-Yokohama 3-8-8, Kohoku-ku\nYokohama, 222-0033, Japan","MULTICOUNT":"TRUE"},"geometry":{"type":"Point","coordinates":[139.618479,35.510728]}},{"type":"Feature","properties":{"CADPARCOMP":"Camso","CADPROVHQ":"Quebec","TECHSEC":"Advanced Manufacturing","CITY":"Ho Chi Minh City","COUNTRY":"Vietnam","ADDRESS":"02 Ngo Duc Ke Street Me Linh Point Tower, 7th Floor\nHo Chi Minh City, 70000, Vietnam","MULTICOUNT":"TRUE"},"geometry":{"type":"Point","coordinates":[106.705987,10.774574]}},{"type":"Feature","properties":{"CADPARCOMP":"Camso","CADPROVHQ":"Quebec","TECHSEC":"Advanced Manufacturing","CITY":"Yokohama","COUNTRY":"Vietnam","ADDRESS":"VSIP2 A, 5 Duong so 23 Vietnam Singapore II-A Industrial Park\nTan Uyen Town, Binh Duong Province 70000, Vietnam","MULTICOUNT":"TRUE"},"geometry":{"type":"Point","coordinates":[106.7083443,10.9485427]}},{"type":"Feature","properties":{"CADPARCOMP":"Canada-China IoT and Blockchain Research Institute (CCIOTCHAIN)","CADPROVHQ":"Ontario","TECHSEC":"Services and Analytics","CITY":"Wuxi","COUNTRY":"China","ADDRESS":"No.28 Hefeng Rd., Wuxi (Taihu) International Science Park, Wuxi, Jiangsu province","MULTICOUNT":""},"geometry":{"type":"Point","coordinates":[120.363119,31.491104]}},{"type":"Feature","properties":{"CADPARCOMP":"Canadian Asian Neck and Back Institute","CADPROVHQ":"Ontario","TECHSEC":"Life Sciences","CITY":"Hong Kong","COUNTRY":"Hong Kong","ADDRESS":"Room 2006A, 20/F, Nam Fung Centre, 264-298 Castle Peak\nRoad, TSUEN WAN","MULTICOUNT":"FALSE"},"geometry":{"type":"Point","coordinates":[114.11645,22.373742]}},{"type":"Feature","properties":{"CADPARCOMP":"Canadian Solar","CADPROVHQ":"Ontario","TECHSEC":"Energy and Clean Technology","CITY":"Suzhou","COUNTRY":"China","ADDRESS":"199 Lushan Road, Jiangsu, China, 215129","MULTICOUNT":"TRUE"},"geometry":{"type":"Point","coordinates":[120.5109351,31.3243719]}},{"type":"Feature","properties":{"CADPARCOMP":"Canadian Solar","CADPROVHQ":"Ontario","TECHSEC":"Energy and Clean Technology","CITY":"Bengaluru","COUNTRY":"India","ADDRESS":"Concorde Towers, Level 14 & 15, UB City, 1 Vittal Mallya Road, Bangalore, Karnataka 560001","MULTICOUNT":"TRUE"},"geometry":{"type":"Point","coordinates":[77.6003276,12.9701276]}},{"type":"Feature","properties":{"CADPARCOMP":"Canadian Solar","CADPROVHQ":"Ontario","TECHSEC":"Energy and Clean Technology","CITY":"Chennai","COUNTRY":"India","ADDRESS":"27/12, Cresent Park Street,T.Nagar,\nChennai – 600 017, Tamilnadu, India.","MULTICOUNT":"TRUE"},"geometry":{"type":"Point","coordinates":[80.2379402,13.0377699]}},{"type":"Feature","properties":{"CADPARCOMP":"Canadian Solar","CADPROVHQ":"Ontario","TECHSEC":"Energy and Clean Technology","CITY":"Tokyo","COUNTRY":"Japan","ADDRESS":"Round-Cross Shinjuku 5-Chome 8F, Tokyo Japan 160-0022","MULTICOUNT":"TRUE"},"geometry":{"type":"Point","coordinates":[139.709008,35.6929128]}},{"type":"Feature","properties":{"CADPARCOMP":"Canadian Solar","CADPROVHQ":"Ontario","TECHSEC":"Energy and Clean Technology","CITY":"Tokyo","COUNTRY":"Japan","ADDRESS":"Round-Cross Shinjuku 5-Chome 8F,\nTokyo Japan 160-0022","MULTICOUNT":"TRUE"},"geometry":{"type":"Point","coordinates":[139.7093571,35.6917017]}},{"type":"Feature","properties":{"CADPARCOMP":"Canadian Solar","CADPROVHQ":"Ontario","TECHSEC":"Energy and Clean Technology","CITY":"Singapore","COUNTRY":"Singapore","ADDRESS":"101 Thomson Road, #15-03 United Square, Singapore 307591","MULTICOUNT":"TRUE"},"geometry":{"type":"Point","coordinates":[103.843491,1.317711]}},{"type":"Feature","properties":{"CADPARCOMP":"Canadian Solar","CADPROVHQ":"Ontario","TECHSEC":"Energy and Clean Technology","CITY":"Seoul","COUNTRY":"South Korea","ADDRESS":"201, SK HUB Officetel, 708-26, Yeoksam-Dong, Kangnam-gu, Seoul, Korea","MULTICOUNT":"TRUE"},"geometry":{"type":"Point","coordinates":[126.95649,37.552002]}},{"type":"Feature","properties":{"CADPARCOMP":"Canadian Solar","CADPROVHQ":"Ontario","TECHSEC":"Energy and Clean Technology","CITY":"Haiphong","COUNTRY":"Vietnam","ADDRESS":"RBF D11, No. 5, East West Road, VSIP Hai Phong IP, Thuy Nguyen District, Dinh Vu-Cat Hai EZ, Hai Phong, Vietnam","MULTICOUNT":"TRUE"},"geometry":{"type":"Point","coordinates":[106.6880841,20.8449115]}},{"type":"Feature","properties":{"CADPARCOMP":"Canalta Controls Ltd.","CADPROVHQ":"Alberta","TECHSEC":"Advanced Manufacturing","CITY":"Vadodara","COUNTRY":"India","ADDRESS":"Unit No. 102, First Floor, Iscon Atria 1,\nOpposite GEB Substation\nGotri Road, Vadodara – 390021\nGujarat, India","MULTICOUNT":"TRUE"},"geometry":{"type":"Point","coordinates":[73.1424509,22.3147587]}},{"type":"Feature","properties":{"CADPARCOMP":"Canalta Controls Ltd.","CADPROVHQ":"Alberta","TECHSEC":"Advanced Manufacturing","CITY":"Bekasi","COUNTRY":"Indonesia","ADDRESS":"Jln. Wibawa Mukti II No. 89,\nJatiasih - Bekasi 17425, Indonesia","MULTICOUNT":"TRUE"},"geometry":{"type":"Point","coordinates":[106.9502364,-6.3155393]}},{"type":"Feature","properties":{"CADPARCOMP":"Canalta Controls Ltd.","CADPROVHQ":"Alberta","TECHSEC":"Advanced Manufacturing","CITY":"Petaling Jaya","COUNTRY":"Malaysia","ADDRESS":"15-1 Block E2, Jalan PJU 1/42A, \nDataran Prima, Taman Mayang Mas \n47301 Petaling Jaya, Malaysia","MULTICOUNT":"TRUE"},"geometry":{"type":"Point","coordinates":[101.5942783,3.1180866]}},{"type":"Feature","properties":{"CADPARCOMP":"Canalta Controls Ltd.","CADPROVHQ":"Alberta","TECHSEC":"Advanced Manufacturing","CITY":"Singapore","COUNTRY":"Singapore","ADDRESS":"21 Toh Guan Road, #06-12, Toh Guan Centre\nSingapore 608609","MULTICOUNT":"TRUE"},"geometry":{"type":"Point","coordinates":[103.754693,1.337651]}},{"type":"Feature","properties":{"CADPARCOMP":"Canalta Controls Ltd.","CADPROVHQ":"Alberta","TECHSEC":"Advanced Manufacturing","CITY":"Taipei City","COUNTRY":"Taiwan","ADDRESS":"6th Floor, No 33, Jen Ai Road,\nSection 4, Taipei, Taiwan","MULTICOUNT":"TRUE"},"geometry":{"type":"Point","coordinates":[121.4636303,25.0204032]}},{"type":"Feature","properties":{"CADPARCOMP":"Canalta Controls Ltd.","CADPROVHQ":"Alberta","TECHSEC":"Advanced Manufacturing","CITY":"Bangkok","COUNTRY":"Thailand","ADDRESS":"135/12, 7th Floor, Amornphan 205 Tower 2,\nRatchadapisek Road, Dindaeng,\nDindaeng, Bangkok 10400, Thailand","MULTICOUNT":"TRUE"},"geometry":{"type":"Point","coordinates":[100.5725977,13.7728094]}},{"type":"Feature","properties":{"CADPARCOMP":"Canalta Controls Ltd.","CADPROVHQ":"Alberta","TECHSEC":"Advanced Manufacturing","CITY":"Ho Chi Minh City","COUNTRY":"Vietnam","ADDRESS":"371/12/9 Truong Chinh St, Ward 14, \nTan Binh Dist, Ho Chi Min City, Vietnam","MULTICOUNT":"TRUE"},"geometry":{"type":"Point","coordinates":[106.6430573,10.7978106]}},{"type":"Feature","properties":{"CADPARCOMP":"Canatal International Inc.","CADPROVHQ":"Ontario","TECHSEC":"Energy and Clean Technology","CITY":"Hong Kong","COUNTRY":"Hong Kong","ADDRESS":"13/F, Island Place Tower,\nNo. 510 King’s Road,\nNorth Point, Hong Kong","MULTICOUNT":"FALSE"},"geometry":{"type":"Point","coordinates":[114.203015,22.291197]}},{"type":"Feature","properties":{"CADPARCOMP":"Candu Energy Inc.","CADPROVHQ":"Ontario","TECHSEC":"Energy and Clean Technology","CITY":"Shanghai","COUNTRY":"China","ADDRESS":"Suite 403, Hua Wen Plaza 999 Zhongshan Road (West Changning District Shanghai 200051 People’s Republic of China","MULTICOUNT":"FALSE"},"geometry":{"type":"Point","coordinates":[121.414552,31.199565]}},{"type":"Feature","properties":{"CADPARCOMP":"Candu Owners Group Inc.","CADPROVHQ":"Ontario","TECHSEC":"Energy and Clean Technology","CITY":"Mumbai","COUNTRY":"India","ADDRESS":"Vikram Sarabhai Bhavan,\nAnushakti Nagar, Mumbai - 400 094 \nIndia","MULTICOUNT":"FALSE"},"geometry":{"type":"Point","coordinates":[72.924046,19.031283]}},{"type":"Feature","properties":{"CADPARCOMP":"Candu Owners Group Inc.","CADPROVHQ":"Ontario","TECHSEC":"Energy and Clean Technology","CITY":"Wolsong","COUNTRY":"South Korea","ADDRESS":"260 Naa-Ri, Yangnam-Myun, Kyongju-Si,\nKyong-Buk, 780-715\nKorea","MULTICOUNT":"FALSE"},"geometry":{"type":"Point","coordinates":[129.473889,35.7125]}},{"type":"Feature","properties":{"CADPARCOMP":"Canfor Corporation","CADPROVHQ":"British Columbia","TECHSEC":"Energy and Clean Technology","CITY":"Tokyo","COUNTRY":"Japan","ADDRESS":"Toranomon 40MT Building 5F 5-13-1 Toranomon, Minato-ku Tokyo, Japan 105-0011","MULTICOUNT":"FALSE"},"geometry":{"type":"Point","coordinates":[139.745942,35.663408]}},{"type":"Feature","properties":{"CADPARCOMP":"Canfor Corporation","CADPROVHQ":"British Columbia","TECHSEC":"Energy and Clean Technology","CITY":"Seoul","COUNTRY":"South Korea","ADDRESS":"#1610, 16F, Gangnam BD 396 Seocho-daero Seocho-gu Seoul, South Korea 137-857","MULTICOUNT":"FALSE"},"geometry":{"type":"Point","coordinates":[127.024731,37.496596]}},{"type":"Feature","properties":{"CADPARCOMP":"Cangene Corporation","CADPROVHQ":"Manitoba","TECHSEC":"Life Sciences","CITY":"New Delhi","COUNTRY":"India","ADDRESS":"311 – 312, Suneja Tower – 1\nDistrict Centre, Janak Puri, New Delhi – 110058\nPh : 011 – 25542181 / 2182 / 41587181","MULTICOUNT":"FALSE"},"geometry":{"type":"Point","coordinates":[77.0822133,28.6289877]}},{"type":"Feature","properties":{"CADPARCOMP":"Carestream Health","CADPROVHQ":"Ontario","TECHSEC":"Life Sciences","CITY":"Beijing","COUNTRY":"China","ADDRESS":"Room 502-507\nGemdale Plaza B, NO.91\nJianguo Road,Chaoyang District\nBeijing,P.R.China, 100022","MULTICOUNT":"TRUE"},"geometry":{"type":"Point","coordinates":[116.475508,39.910584]}},{"type":"Feature","properties":{"CADPARCOMP":"Carestream Health","CADPROVHQ":"Ontario","TECHSEC":"Life Sciences","CITY":"Hong Kong","COUNTRY":"Hong Kong","ADDRESS":"21/F Cigna Tower\n482 Jaffe Road\nCauseway Bay, Hong Kong","MULTICOUNT":"TRUE"},"geometry":{"type":"Point","coordinates":[114.1826701,22.2808945]}},{"type":"Feature","properties":{"CADPARCOMP":"Carestream Health","CADPROVHQ":"Ontario","TECHSEC":"Life Sciences","CITY":"Mumbai","COUNTRY":"India","ADDRESS":"Sunteck Centre, 1st floor, Subhash Road\nVile Parle (E), Mumbai – 400057","MULTICOUNT":"TRUE"},"geometry":{"type":"Point","coordinates":[72.8515402,19.1071016]}},{"type":"Feature","properties":{"CADPARCOMP":"Carestream Health","CADPROVHQ":"Ontario","TECHSEC":"Life Sciences","CITY":"Jakarta","COUNTRY":"Indonesia","ADDRESS":"Rukan Permata Senayan Blok A 18-19\nJl. Tentara Pelajar No. 5\nJakarta Selatan 12210","MULTICOUNT":"TRUE"},"geometry":{"type":"Point","coordinates":[106.7896254,-6.2240123]}},{"type":"Feature","properties":{"CADPARCOMP":"Carestream Health","CADPROVHQ":"Ontario","TECHSEC":"Life Sciences","CITY":"Tokyo","COUNTRY":"Japan","ADDRESS":"Tokyo Sumitomo Twin Bldg\n\nEast 2-27-1\n\nShinkawa\n\nChuo-ku\n\nTokyo, 104-0033\n\nJapan","MULTICOUNT":"TRUE"},"geometry":{"type":"Point","coordinates":[139.784382,35.676175]}},{"type":"Feature","properties":{"CADPARCOMP":"Carestream Health","CADPROVHQ":"Ontario","TECHSEC":"Life Sciences","CITY":"Puchong","COUNTRY":"Malaysia","ADDRESS":"Jaya One, Blk A, Unit 17, Level 5, Phase 1, No. 72A Jalan Universiti, Selangor, 46200 Petaling Jaya, Malaysia","MULTICOUNT":"TRUE"},"geometry":{"type":"Point","coordinates":[101.636245,3.11805]}},{"type":"Feature","properties":{"CADPARCOMP":"Carestream Health","CADPROVHQ":"Ontario","TECHSEC":"Life Sciences","CITY":"Selangor","COUNTRY":"Malaysia","ADDRESS":"Unit No. A-17-5 Jaya One,\nNo. 72A Jalan Universiti\n46200 Petaling Jaya, Selangor","MULTICOUNT":"TRUE"},"geometry":{"type":"Point","coordinates":[101.6363313,3.1182973]}},{"type":"Feature","properties":{"CADPARCOMP":"Carestream Health","CADPROVHQ":"Ontario","TECHSEC":"Life Sciences","CITY":"Makati City","COUNTRY":"Philippines","ADDRESS":"2247 Chino Roces Avenue\nMakati City, Philippines 1299","MULTICOUNT":"TRUE"},"geometry":{"type":"Point","coordinates":[121.017355,14.54357]}},{"type":"Feature","properties":{"CADPARCOMP":"Carestream Health","CADPROVHQ":"Ontario","TECHSEC":"Life Sciences","CITY":"Singapore","COUNTRY":"Singapore","ADDRESS":"315 Alexandra Road\n#04-01 Sime Darby Business Center\nSingapore 159944","MULTICOUNT":"TRUE"},"geometry":{"type":"Point","coordinates":[103.8067049,1.288539]}},{"type":"Feature","properties":{"CADPARCOMP":"Carestream Health","CADPROVHQ":"Ontario","TECHSEC":"Life Sciences","CITY":"Seoul","COUNTRY":"South Korea","ADDRESS":"4F, Shinyoung B/D, 46-10\nJamwon-dong, Seocho-gu, Seoul 137-906, Korea","MULTICOUNT":"TRUE"},"geometry":{"type":"Point","coordinates":[127.0324112,37.4837121]}},{"type":"Feature","properties":{"CADPARCOMP":"Carmanah","CADPROVHQ":"British Columbia","TECHSEC":"Energy and Clean Technology","CITY":"Hong Kong","COUNTRY":"Hong Kong","ADDRESS":"5/F Tower A Manulife Financial Centre, 223-231 Wai Yip Street, Kwun Tong, Kowloon, Kwun Tong, Hong Kong","MULTICOUNT":"FALSE"},"geometry":{"type":"Point","coordinates":[114.22359,22.307874]}},{"type":"Feature","properties":{"CADPARCOMP":"Caseware International Inc.","CADPROVHQ":"Ontario","TECHSEC":"Software","CITY":"Beijing","COUNTRY":"China","ADDRESS":"Room 507,5/F,Block E,\nShangbali Cultural Business Park,\nGaobeidian Township, Chaoyang District,Beijing,China","MULTICOUNT":"FALSE"},"geometry":{"type":"Point","coordinates":[116.443108,39.92147]}},{"type":"Feature","properties":{"CADPARCOMP":"Caseware International Inc.","CADPROVHQ":"Ontario","TECHSEC":"Software","CITY":"Hong Kong","COUNTRY":"Hong Kong","ADDRESS":"21/F HK Diamond Exchange Building\n8-10 Duddell Street\nCentral\nHong Kong","MULTICOUNT":"FALSE"},"geometry":{"type":"Point","coordinates":[114.156957,22.279691]}},{"type":"Feature","properties":{"CADPARCOMP":"Caseware International Inc.","CADPROVHQ":"Ontario","TECHSEC":"Software","CITY":"Mumbai","COUNTRY":"India","ADDRESS":"601, Janki Centre. 29, Shah Industrial Estate, Off Veera Desai Road, \nAndheri (W), Mumbai 400053, Maharashtra, India.","MULTICOUNT":"FALSE"},"geometry":{"type":"Point","coordinates":[72.8338101,19.1325035]}},{"type":"Feature","properties":{"CADPARCOMP":"Caseware International Inc.","CADPROVHQ":"Ontario","TECHSEC":"Software","CITY":"Pune","COUNTRY":"India","ADDRESS":"I I, Chaitraban, Block 'A', Vth Floor, Old Mumbai Pune Highway, Narveer Tanaji Wadi, Shivajinagar, Narveer Tanaji Wadi, Shivajinagar, Pune, Maharashtra 411003, India","MULTICOUNT":"FALSE"},"geometry":{"type":"Point","coordinates":[73.8511875,18.5348125]}},{"type":"Feature","properties":{"CADPARCOMP":"Caseware International Inc.","CADPROVHQ":"Ontario","TECHSEC":"Software","CITY":"Chennai","COUNTRY":"India","ADDRESS":"No.5, 2nd Floor, Rajiv Gandhi Salai,\nTaramani, Chennai 600 013\nINDIA","MULTICOUNT":"FALSE"},"geometry":{"type":"Point","coordinates":[80.227941,12.9859318]}},{"type":"Feature","properties":{"CADPARCOMP":"CBL Data Recovery","CADPROVHQ":"Ontario","TECHSEC":"Services and Analytics","CITY":"Singapore","COUNTRY":"Singapore","ADDRESS":"51 Changi Business Park Central 2, Singapore 486066","MULTICOUNT":"FALSE"},"geometry":{"type":"Point","coordinates":[103.964995,1.334908]}},{"type":"Feature","properties":{"CADPARCOMP":"Celestica Inc.","CADPROVHQ":"Ontario","TECHSEC":"Advanced Manufacturing","CITY":"Dongguan","COUNTRY":"China","ADDRESS":"Northern Area, Songshan Lake Science and Technology Industrial Park, Dongguan City, Guangdong, China 523808","MULTICOUNT":"TRUE"},"geometry":{"type":"Point","coordinates":[113.8980913,22.9695292]}},{"type":"Feature","properties":{"CADPARCOMP":"Celestica Inc.","CADPROVHQ":"Ontario","TECHSEC":"Advanced Manufacturing","CITY":"Suzhou","COUNTRY":"China","ADDRESS":"No. 448 Su Hong Middle Road, Suzhou Industrial Park, Suzhou, Jiangsu Province, China, 215021","MULTICOUNT":"TRUE"},"geometry":{"type":"Point","coordinates":[120.7217702,31.3367882]}},{"type":"Feature","properties":{"CADPARCOMP":"Celestica Inc.","CADPROVHQ":"Ontario","TECHSEC":"Advanced Manufacturing","CITY":"Shanghai","COUNTRY":"China","ADDRESS":"A701-801 Building 1, Zhang Jiang Riverfront Harbor, 3000 Long dong Ave. Pudong, Shanghai P.R.C 201203","MULTICOUNT":"TRUE"},"geometry":{"type":"Point","coordinates":[121.6247041,31.1930262]}},{"type":"Feature","properties":{"CADPARCOMP":"Celestica Inc.","CADPROVHQ":"Ontario","TECHSEC":"Advanced Manufacturing","CITY":"Hong Kong","COUNTRY":"Hong Kong","ADDRESS":"Celestica, 4/F Goldlion Holding Centre, 13-15 Yuen Shun Circuit, Siu Lek Yuen, Shatin, Hong Kong","MULTICOUNT":"TRUE"},"geometry":{"type":"Point","coordinates":[114.109497,22.396428]}},{"type":"Feature","properties":{"CADPARCOMP":"Celestica Inc.","CADPROVHQ":"Ontario","TECHSEC":"Advanced Manufacturing","CITY":"Tokyo","COUNTRY":"Japan","ADDRESS":"Celestica Japan K.K., Daimon KS Building 2F, 1-2-1, Shiba-Daimon, Minato-ku, Tokyo, 105-0012, Japan","MULTICOUNT":"TRUE"},"geometry":{"type":"Point","coordinates":[139.754347,35.6588948]}},{"type":"Feature","properties":{"CADPARCOMP":"Celestica Inc.","CADPROVHQ":"Ontario","TECHSEC":"Advanced Manufacturing","CITY":"Miyagi","COUNTRY":"Japan","ADDRESS":"Celestica 2, Aza-Raijin Yoshioka Taiwa-cho Kurokawa-gun, Miyagi 981-3681, Japan","MULTICOUNT":"TRUE"},"geometry":{"type":"Point","coordinates":[140.8946305,38.4408093]}},{"type":"Feature","properties":{"CADPARCOMP":"Celestica Inc.","CADPROVHQ":"Ontario","TECHSEC":"Advanced Manufacturing","CITY":"Savannakhet Province","COUNTRY":"Laos","ADDRESS":"Celestica, No. 204 & 215, Zone C, Savan‐SENO Special Economic Zone, Road No-9, Nongdurn Village, Kaison Phomviharn District, Savannakhet Province, Lao PDR","MULTICOUNT":"TRUE"},"geometry":{"type":"Point","coordinates":[104.801821,16.613032]}},{"type":"Feature","properties":{"CADPARCOMP":"Celestica Inc.","CADPROVHQ":"Ontario","TECHSEC":"Advanced Manufacturing","CITY":"Kulim","COUNTRY":"Malaysia","ADDRESS":"Celestica, Plot 15 & 16, Jalan Hi-Tech, 2/3 Phase 1, Kulim Hi-Tech Park, Kulim, Kedah, Malaysia 09000","MULTICOUNT":"TRUE"},"geometry":{"type":"Point","coordinates":[100.5553372,5.371742]}},{"type":"Feature","properties":{"CADPARCOMP":"Celestica Inc.","CADPROVHQ":"Ontario","TECHSEC":"Advanced Manufacturing","CITY":"Senai","COUNTRY":"Malaysia","ADDRESS":"Celestica AMS, No. 21, Jalan Teknologi 2, Taman Teknologi Johor, 81400 Senai, Malaysia","MULTICOUNT":"TRUE"},"geometry":{"type":"Point","coordinates":[103.6531261,1.5713023]}},{"type":"Feature","properties":{"CADPARCOMP":"Celestica Inc.","CADPROVHQ":"Ontario","TECHSEC":"Advanced Manufacturing","CITY":"Senai","COUNTRY":"Malaysia","ADDRESS":"Celestica Senai (EMS), Lot 1 Airport Logistic Park, Sultan Ismail International Airport, 81250. Senai, Johor, Malaysia","MULTICOUNT":"TRUE"},"geometry":{"type":"Point","coordinates":[103.6623214,1.6451992]}},{"type":"Feature","properties":{"CADPARCOMP":"Celestica Inc.","CADPROVHQ":"Ontario","TECHSEC":"Advanced Manufacturing","CITY":"Singapore","COUNTRY":"Singapore","ADDRESS":"Celestica Electronics (S) Pte Ltd (Woodlands), 35 Marsiling Industrial Estate Road 3 #03-01, Woodlands Ave 5, Singapore 739257","MULTICOUNT":"TRUE"},"geometry":{"type":"Point","coordinates":[103.7924454,1.435088]}},{"type":"Feature","properties":{"CADPARCOMP":"Celestica Inc.","CADPROVHQ":"Ontario","TECHSEC":"Advanced Manufacturing","CITY":"Singapore","COUNTRY":"Singapore","ADDRESS":"Celestica, No. 6 Serangoon North Ave 5 \n#06-11, Singapore 554910","MULTICOUNT":"TRUE"},"geometry":{"type":"Point","coordinates":[103.869139,1.374484]}},{"type":"Feature","properties":{"CADPARCOMP":"Celestica Inc.","CADPROVHQ":"Ontario","TECHSEC":"Advanced Manufacturing","CITY":"Laem Chabang","COUNTRY":"Thailand","ADDRESS":"Celestica, 49/18 Moo 5, Laem Chabang Industrial Estate, Tungsukla Sriracha, Chonburi, Thailand 20230","MULTICOUNT":"TRUE"},"geometry":{"type":"Point","coordinates":[101.0163228,13.0799039]}},{"type":"Feature","properties":{"CADPARCOMP":"Centrilogic Inc.","CADPROVHQ":"Ontario","TECHSEC":"Mobile, Web, and Cloud Integration","CITY":"Hong Kong","COUNTRY":"Hong Kong","ADDRESS":"Well Tech Centre, 9 Pat Tat St, San Po Kong, Hong Kong","MULTICOUNT":"FALSE"},"geometry":{"type":"Point","coordinates":[114.199759,22.337653]}},{"type":"Feature","properties":{"CADPARCOMP":"CGI Group Inc.","CADPROVHQ":"Quebec","TECHSEC":"Services and Analytics","CITY":"Hong Kong","COUNTRY":"Hong Kong","ADDRESS":"20th Floor, One International Finance Centre\n1 Harbour View Street Central\nHong Kong Island\n999077","MULTICOUNT":"TRUE"},"geometry":{"type":"Point","coordinates":[114.1569078,22.2849042]}},{"type":"Feature","properties":{"CADPARCOMP":"CGI Group Inc.","CADPROVHQ":"Quebec","TECHSEC":"Services and Analytics","CITY":"Mumbai","COUNTRY":"India","ADDRESS":"Plot No. 22, SEEPZ\nAndheri (East)\nMumbai\n400096","MULTICOUNT":"TRUE"},"geometry":{"type":"Point","coordinates":[72.8756184,19.1248165]}},{"type":"Feature","properties":{"CADPARCOMP":"CGI Group Inc.","CADPROVHQ":"Quebec","TECHSEC":"Services and Analytics","CITY":"Pune","COUNTRY":"India","ADDRESS":"Tower 4, 2nd floor, Dholepatil Farms Road, Opp. EON Free Zone, MIDC,\nKnowledge Park,\nPune\n411014","MULTICOUNT":"TRUE"},"geometry":{"type":"Point","coordinates":[73.9485287,18.5526296]}},{"type":"Feature","properties":{"CADPARCOMP":"CGI Group Inc.","CADPROVHQ":"Quebec","TECHSEC":"Services and Analytics","CITY":"Bengaluru","COUNTRY":"India","ADDRESS":"Plot No. 76 & 77, Electronic City, Phase 1(west)\nBangalore\n560100","MULTICOUNT":"TRUE"},"geometry":{"type":"Point","coordinates":[77.6642908,12.8410943]}},{"type":"Feature","properties":{"CADPARCOMP":"CGI Group Inc.","CADPROVHQ":"Quebec","TECHSEC":"Services and Analytics","CITY":"Bengaluru","COUNTRY":"India","ADDRESS":"Tower 2, #95/1 & 95/2\nElectronic City Phase 1 (West)\nBangalore\n560100","MULTICOUNT":"TRUE"},"geometry":{"type":"Point","coordinates":[77.6673679,12.8412294]}},{"type":"Feature","properties":{"CADPARCOMP":"CGI Group Inc.","CADPROVHQ":"Quebec","TECHSEC":"Services and Analytics","CITY":"Bengaluru","COUNTRY":"India","ADDRESS":"124,125, Yemlur P.O.\nOff old Airport Road\nBangalore\n560037","MULTICOUNT":"TRUE"},"geometry":{"type":"Point","coordinates":[77.6892417,12.9482597]}},{"type":"Feature","properties":{"CADPARCOMP":"CGI Group Inc.","CADPROVHQ":"Quebec","TECHSEC":"Services and Analytics","CITY":"Bengaluru","COUNTRY":"India","ADDRESS":"New No. 493, Old No.491/1, 1st and 2nd Floor,\nUnit 303 & 304 of 3rd Floor, Mahadevapura, White field Main Road,\nBangalore\n560048","MULTICOUNT":"TRUE"},"geometry":{"type":"Point","coordinates":[77.702352,12.9927873]}},{"type":"Feature","properties":{"CADPARCOMP":"CGI Group Inc.","CADPROVHQ":"Quebec","TECHSEC":"Services and Analytics","CITY":"Hyderabad","COUNTRY":"India","ADDRESS":"2nd Floor, Part of Ground&6th Floor, Block-3, Part of 3rd Floor, Block-2,\nPlot No 129/132, APHB Colony,Gachibowli Village, Serilingmplly Mandal, Ranga reddy Dist\nHyderabad\n500032","MULTICOUNT":"TRUE"},"geometry":{"type":"Point","coordinates":[78.3573899,17.4466815]}},{"type":"Feature","properties":{"CADPARCOMP":"CGI Group Inc.","CADPROVHQ":"Quebec","TECHSEC":"Services and Analytics","CITY":"Hyderabad","COUNTRY":"India","ADDRESS":"4th Floor, Block A, Road No. 2,\nRMZ Futura, Hitec City Layout, Madhapur,\nHyderabad\n500081","MULTICOUNT":"TRUE"},"geometry":{"type":"Point","coordinates":[78.400197,17.4881902]}},{"type":"Feature","properties":{"CADPARCOMP":"CGI Group Inc.","CADPROVHQ":"Quebec","TECHSEC":"Services and Analytics","CITY":"Chennai","COUNTRY":"India","ADDRESS":"3rd floor, 5th Block, 1/124, Shivaji Gardens,\nChennai\n600089","MULTICOUNT":"TRUE"},"geometry":{"type":"Point","coordinates":[80.1870224,13.0180773]}},{"type":"Feature","properties":{"CADPARCOMP":"CGI Group Inc.","CADPROVHQ":"Quebec","TECHSEC":"Services and Analytics","CITY":"Kuala Lumpur","COUNTRY":"Malaysia","ADDRESS":"Avenue 7 Bangsar South City No. 8 Jalan Kerinchi, Level 5, Menara PNS Tower 7 59200 Kuala Lumpur, Malaysia","MULTICOUNT":"TRUE"},"geometry":{"type":"Point","coordinates":[101.6682307,3.1124832]}},{"type":"Feature","properties":{"CADPARCOMP":"CGI Group Inc.","CADPROVHQ":"Quebec","TECHSEC":"Services and Analytics","CITY":"Taguig","COUNTRY":"Philippines","ADDRESS":"10 Upper McKinley Road, McKinley Hill, 2/F One World Square, Taguig City Metro Manila 1634, Philippines","MULTICOUNT":"TRUE"},"geometry":{"type":"Point","coordinates":[121.0484553,14.5353215]}},{"type":"Feature","properties":{"CADPARCOMP":"CGI Group Inc.","CADPROVHQ":"Quebec","TECHSEC":"Services and Analytics","CITY":"Pasig City","COUNTRY":"Philippines","ADDRESS":"Sapphire and Garnet Roads,\nOrtigas Center\n14/F Robinsons Cyberscape Alpha\nPasig City\n1605","MULTICOUNT":"TRUE"},"geometry":{"type":"Point","coordinates":[121.061455,14.589373]}},{"type":"Feature","properties":{"CADPARCOMP":"Champion Photochemistry Ltd.","CADPROVHQ":"Ontario","TECHSEC":"Advanced Manufacturing","CITY":"Shanghai","COUNTRY":"China","ADDRESS":"Room 517, Tomson Building, No. 1, Ji Long Road, China (Shanghai) Pilot Free Trade Zone, Pudong, Shanghai 200131, The People's Republic of China","MULTICOUNT":"FALSE"},"geometry":{"type":"Point","coordinates":[121.587326,31.349602]}},{"type":"Feature","properties":{"CADPARCOMP":"Champion Photochemistry Ltd.","CADPROVHQ":"Ontario","TECHSEC":"Advanced Manufacturing","CITY":"New Delhi","COUNTRY":"India","ADDRESS":"Blue Pearl, 16A/3, W.E.A., (Opp. Puja Park), Karol Bagh, New Delhi 110005, India","MULTICOUNT":"FALSE"},"geometry":{"type":"Point","coordinates":[77.1876094,28.6455797]}},{"type":"Feature","properties":{"CADPARCOMP":"Champion Photochemistry Ltd.","CADPROVHQ":"Ontario","TECHSEC":"Advanced Manufacturing","CITY":"Kuala Lumpur","COUNTRY":"Malaysia","ADDRESS":"28B Jalan 4/32A Mukim Batu Industrial Area, 6-1/2 Miles Jalan Kepong, 52000 Kuala Lumpur, Malaysia","MULTICOUNT":"FALSE"},"geometry":{"type":"Point","coordinates":[101.660032,3.2077773]}},{"type":"Feature","properties":{"CADPARCOMP":"Changfeng Energy Inc.","CADPROVHQ":"Ontario","TECHSEC":"Energy and Clean Technology","CITY":"Hainan","COUNTRY":"China","ADDRESS":"No. 222, Phoenix Road, Sanya, Hainan","MULTICOUNT":"FALSE"},"geometry":{"type":"Point","coordinates":[109.445421,18.315639]}},{"type":"Feature","properties":{"CADPARCOMP":"Changfeng Energy Inc.","CADPROVHQ":"Ontario","TECHSEC":"Energy and Clean Technology","CITY":"Sanya City","COUNTRY":"China","ADDRESS":"Sanya City, Hainan Province, China","MULTICOUNT":"FALSE"},"geometry":{"type":"Point","coordinates":[109.467288,18.281906]}},{"type":"Feature","properties":{"CADPARCOMP":"Changfeng Energy Inc.","CADPROVHQ":"Ontario","TECHSEC":"Energy and Clean Technology","CITY":"Pingxiang City","COUNTRY":"China","ADDRESS":"Xiangdong District, Pingxiang City, Jiangxi Province, China","MULTICOUNT":"FALSE"},"geometry":{"type":"Point","coordinates":[113.725241,27.479989]}},